[
    {
        "sno": "500223052",
        "sna": "YouBike2.0_濱海路一段306巷60弄",
        "tot": "14",
        "sbi": "7",
        "sarea": "淡水區",
        "mday": "20250919204003",
        "lat": "25.19157",
        "lng": "121.44198",
        "ar": "濱海路一段306巷60弄33號(前)",
        "sareaen": "Tamsui Dist",
        "snaen": "YouBike2.0_Aly. 60, Ln. 306, Sec. 1, Binhai Rd.",
        "aren": "No. 33, Aly. 60, Ln. 306, Sec. 1, Binhai Rd.",
        "bemp": "6",
        "act": "1"
    },
    {
        "sno": "500223053",
        "sna": "YouBike2.0_淡水行政中心",
        "tot": "10",
        "sbi": "1",
        "sarea": "淡水區",
        "mday": "20250920012303",
        "lat": "25.18696",
        "lng": "121.44407",
        "ar": "中山北路二段375號(前)",
        "sareaen": "Tamsui Dist",
        "snaen": "YouBike2.0_Danshui Administration Center",
        "aren": "No. 375, Sec. 2, Zhongshan N. Rd.",
        "bemp": "9",
        "act": "1"
    },
    {
        "sno": "500223054",
        "sna": "YouBike2.0_淡水新市鎮兒童公園",
        "tot": "15",
        "sbi": "4",
        "sarea": "淡水區",
        "mday": "20250920005002",
        "lat": "25.18509",
        "lng": "121.44227",
        "ar": "中山北路二段189巷100號(旁)",
        "sareaen": "Tamsui Dist",
        "snaen": "YouBike2.0_Danshui Children's Park",
        "aren": "No. 100, Ln. 189, Sec. 2, Zhongshan N. Rd.",
        "bemp": "11",
        "act": "1"
    },
    {
        "sno": "500223055",
        "sna": "YouBike2.0_新市一中山北路口",
        "tot": "14",
        "sbi": "3",
        "sarea": "淡水區",
        "mday": "20250920002802",
        "lat": "25.18296",
        "lng": "121.44412",
        "ar": "新市一路二段258號(前)",
        "sareaen": "Tamsui Dist",
        "snaen": "YouBike2.0_Xinshi 1st & Zhongshan N. Rd. Intersection",
        "aren": "No. 258, Sec. 2, Xinshi 1st Rd.",
        "bemp": "11",
        "act": "1"
    },
    {
        "sno": "500223056",
        "sna": "YouBike2.0_淡金路38巷尾",
        "tot": "10",
        "sbi": "8",
        "sarea": "淡水區",
        "mday": "20250920001002",
        "lat": "25.16083",
        "lng": "121.45790",
        "ar": "淡金路38巷98號前",
        "sareaen": "Tamsui Dist",
        "snaen": "YouBike2.0_Ln. 38, Danjin Rd.",
        "aren": "No. 98, Ln. 38, Danjin Rd., Tamsui Dist.",
        "bemp": "2",
        "act": "1"
    },
    {
        "sno": "500223057",
        "sna": "YouBike2.0_捷運淡水站(中正東路)",
        "tot": "40",
        "sbi": "7",
        "sarea": "淡水區",
        "mday": "20250920032402",
        "lat": "25.16771",
        "lng": "121.44684",
        "ar": "中正東路二段/學府路(西南側)",
        "sareaen": "Tamsui Dist",
        "snaen": "YouBike2.0_MRT Tamsui Sta.(Zhongzheng E. Rd.)",
        "aren": "Sec. 2, Zhongzheng E. Rd. & Xuefu Rd., Tamsui Dist. (west side)",
        "bemp": "32",
        "act": "1"
    },
    {
        "sno": "500223058",
        "sna": "YouBike2.0_衛教公園",
        "tot": "14",
        "sbi": "4",
        "sarea": "淡水區",
        "mday": "20250920020802",
        "lat": "25.17254",
        "lng": "121.44070",
        "ar": "中山路158號(旁)",
        "sareaen": "Tamsui Dist",
        "snaen": "YouBike2.0_Health Education park",
        "aren": "No. 158, Zhongshan Rd., Tamsui Dist.",
        "bemp": "10",
        "act": "1"
    },
    {
        "sno": "500223059",
        "sna": "YouBike2.0_新市一路一段256巷口",
        "tot": "21",
        "sbi": "16",
        "sarea": "淡水區",
        "mday": "20250920024503",
        "lat": "25.18665",
        "lng": "121.43273",
        "ar": "新市一路一段180號(對面)",
        "sareaen": "Tamsui Dist",
        "snaen": "YouBike2.0_Ln. 256, Sec. 1, Xinshi 1st Rd.Intersection",
        "aren": "No. 180, Sec. 1, Xinshi 1st Rd.(Opposite)",
        "bemp": "5",
        "act": "1"
    },
    {
        "sno": "500223060",
        "sna": "YouBike2.0_新民新春街口",
        "tot": "20",
        "sbi": "12",
        "sarea": "淡水區",
        "mday": "20250919232902",
        "lat": "25.18123",
        "lng": "121.43567",
        "ar": "新民街/新春街(西北側)",
        "sareaen": "Tamsui Dist",
        "snaen": "YouBike2.0_Xinmin Xinchun St. Intersection",
        "aren": "Xinmin St. & Xinshun St. Intersection(Northwest)",
        "bemp": "8",
        "act": "1"
    },
    {
        "sno": "500223061",
        "sna": "YouBike2.0_淡海路182巷口",
        "tot": "15",
        "sbi": "10",
        "sarea": "淡水區",
        "mday": "20250920010303",
        "lat": "25.18459",
        "lng": "121.42044",
        "ar": "淡海路/淡海路182巷(東南側)",
        "sareaen": "Tamsui Dist",
        "snaen": "YouBike2.0_Ln. 182, Danhai Rd. Intersection",
        "aren": "Danhai Rd. & Ln. 182, Danhai Rd. Intersection(Southeast)",
        "bemp": "5",
        "act": "1"
    },
    {
        "sno": "500223062",
        "sna": "YouBike2.0_新春街125巷(樂活绽社區)",
        "tot": "29",
        "sbi": "8",
        "sarea": "淡水區",
        "mday": "20250920013004",
        "lat": "25.18270",
        "lng": "121.44155",
        "ar": "新春街125巷",
        "sareaen": "Tamsui Dist",
        "snaen": "YouBike2.0_Ln. 125, Xinchun St.",
        "aren": "Ln. 125, Xinchun St.",
        "bemp": "20",
        "act": "1"
    },
    {
        "sno": "500223063",
        "sna": "YouBike2.0_輕軌紅樹林站",
        "tot": "48",
        "sbi": "14",
        "sarea": "淡水區",
        "mday": "20250920034002",
        "lat": "25.155053",
        "lng": "121.458868",
        "ar": "中正東路二段/八勢一街口(西側公車亭後)",
        "sareaen": "Tamsui Dist",
        "snaen": "YouBike2.0_LRT Hongshulin Station",
        "aren": "Sec. 2, Zhongzheng E. Rd. & Bashi 1st St. (behind bus station)",
        "bemp": "34",
        "act": "1"
    },
    {
        "sno": "500223064",
        "sna": "YouBike2.0_新市三崁頂三路口",
        "tot": "20",
        "sbi": "14",
        "sarea": "淡水區",
        "mday": "20250920032503",
        "lat": "25.19691",
        "lng": "121.43063",
        "ar": "崁頂三路93號(前)",
        "sareaen": "Tamsui Dist",
        "snaen": "YouBike2.0_Xinshi 3rd Rd. & Kanding 3rd. Rd. Intersection",
        "aren": "No. 93, Kanding 3rd Rd. (Front)",
        "bemp": "6",
        "act": "1"
    },
    {
        "sno": "500223065",
        "sna": "YouBike2.0_濱海路一段306巷9弄",
        "tot": "15",
        "sbi": "9",
        "sarea": "淡水區",
        "mday": "20250920005302",
        "lat": "25.19100",
        "lng": "121.43858",
        "ar": "義山路一段216號(東北側車彎內)",
        "sareaen": "Tamsui Dist",
        "snaen": "YouBike2.0_Aly. 9, Ln. 306, Sec.1 Binhai Rd.",
        "aren": "No. 216, Sec. 1, Yishan Rd. (Northeast)",
        "bemp": "6",
        "act": "1"
    },
    {
        "sno": "500223066",
        "sna": "YouBike2.0_民權路3巷12弄口",
        "tot": "21",
        "sbi": "15",
        "sarea": "淡水區",
        "mday": "20250920010502",
        "lat": "25.14288",
        "lng": "121.46151",
        "ar": "民權路3巷12弄2-30號(對側)",
        "sareaen": "Tamsui Dist",
        "snaen": "YouBike2.0_Aly. 12, Ln. 3, Minquan Rd. Intersection",
        "aren": "No. 2-30, Aly. 12, Ln. 3, Minquan Rd. (Opposite)",
        "bemp": "6",
        "act": "1"
    },
    {
        "sno": "500223067",
        "sna": "YouBike2.0_新市二路四段230巷",
        "tot": "22",
        "sbi": "8",
        "sarea": "淡水區",
        "mday": "20250919164302",
        "lat": "25.19087",
        "lng": "121.44564",
        "ar": "新市二路四段230巷66號",
        "sareaen": "Tamsui Dist",
        "snaen": "YouBike2.0_Ln. 230, Sec. 4, Xinshi 2nd Rd.",
        "aren": "No. 66, Ln. 230, Sec. 4, Xinshi 2nd Rd.",
        "bemp": "14",
        "act": "1"
    },
    {
        "sno": "500223068",
        "sna": "YouBike2.0_濱海路二段/濱海路二段202巷",
        "tot": "15",
        "sbi": "8",
        "sarea": "淡水區",
        "mday": "20250920030602",
        "lat": "25.19015",
        "lng": "121.43470",
        "ar": "濱海路二段202巷口",
        "sareaen": "Tamsui Dist",
        "snaen": "YouBike2.0_Ln. 202, Sec. 2, Binhai Rd. Intersection",
        "aren": "Ln. 202, Sec. 2, Binhai Rd. Intersection",
        "bemp": "7",
        "act": "1"
    },
    {
        "sno": "500223070",
        "sna": "YouBike2.0_輕軌濱海義山站(西南側)",
        "tot": "30",
        "sbi": "7",
        "sarea": "淡水區",
        "mday": "20250920003102",
        "lat": "25.18961",
        "lng": "121.43734",
        "ar": "濱海路二段/義山路一段(西南側)",
        "sareaen": "Tamsui Dist",
        "snaen": "YouBike2.0_LRT BinHai YiShan Sta.(Southwest)",
        "aren": "Sec.2, BinHai Rd. & Sec.1, YiShan Rd. (Southwest)",
        "bemp": "23",
        "act": "1"
    },
    {
        "sno": "500223071",
        "sna": "YouBike2.0_新市六後洲路口",
        "tot": "15",
        "sbi": "9",
        "sarea": "淡水區",
        "mday": "20250920003702",
        "lat": "25.20285",
        "lng": "121.43070",
        "ar": "新市六路一段6號(前)",
        "sareaen": "Tamsui Dist",
        "snaen": "YouBike2.0_XinShi 6th Rd. & HouZhou Rd. Intersection",
        "aren": "No. 6, Sec. 1, XinShi 6th Rd. (Front)",
        "bemp": "6",
        "act": "1"
    },
    {
        "sno": "500223072",
        "sna": "YouBike2.0_淡水老街廣場",
        "tot": "28",
        "sbi": "4",
        "sarea": "淡水區",
        "mday": "20250920031902",
        "lat": "25.16891",
        "lng": "121.44428",
        "ar": "公明街73巷6號(前淡水老街廣場)",
        "sareaen": "Tamsui Dist",
        "snaen": "YouBike2.0_Tamsui Old Street Square",
        "aren": "No.6, Ln. 73, Gongming St.",
        "bemp": "24",
        "act": "1"
    },
    {
        "sno": "500223073",
        "sna": "YouBike2.0_沙崙路151巷口",
        "tot": "26",
        "sbi": "8",
        "sarea": "淡水區",
        "mday": "20250920001903",
        "lat": "25.18345",
        "lng": "121.42386",
        "ar": "沙崙路167號",
        "sareaen": "Tamsui Dist",
        "snaen": "YouBike2.0_Ln. 151, ShaLun Rd.",
        "aren": "No. 167, ShaLun Rd.",
        "bemp": "18",
        "act": "1"
    },
    {
        "sno": "500223074",
        "sna": "YouBike2.0_沙崙路216巷口",
        "tot": "20",
        "sbi": "9",
        "sarea": "淡水區",
        "mday": "20250919231004",
        "lat": "25.18428",
        "lng": "121.42508",
        "ar": "沙崙路214號",
        "sareaen": "Tamsui Dist",
        "snaen": "YouBike2.0_Ln. 216, ShaLun Rd.",
        "aren": "No. 214, ShaLun Rd.",
        "bemp": "11",
        "act": "1"
    },
    {
        "sno": "500223076",
        "sna": "YouBike2.0_新市一路一段331巷/義山路一段163巷口(東南側)",
        "tot": "15",
        "sbi": "9",
        "sarea": "淡水區",
        "mday": "20250919223002",
        "lat": "25.18731",
        "lng": "121.43596",
        "ar": "新市一路一段331巷156號(對側)",
        "sareaen": "Tamsui Dist",
        "snaen": "YouBike2.0_Ln. 331, Sec. 1, XinShi 1st Rd. & Ln. 163, Sec. 1, YiShan Rd.",
        "aren": "No. 156, Ln. 331, Sec. 1, XinShi 1st Rd. (Opposite)",
        "bemp": "6",
        "act": "1"
    },
    {
        "sno": "500223077",
        "sna": "YouBike2.0_聖約翰科技大學",
        "tot": "30",
        "sbi": "8",
        "sarea": "淡水區",
        "mday": "20250919220902",
        "lat": "25.22750",
        "lng": "121.45166",
        "ar": "淡金路四段499號",
        "sareaen": "Tamsui Dist",
        "snaen": "YouBike2.0_St. John's University",
        "aren": "No. 499, Sec. 4, DanJin Rd.",
        "bemp": "22",
        "act": "1"
    },
    {
        "sno": "500223078",
        "sna": "YouBike2.0_沙崙新民街口",
        "tot": "21",
        "sbi": "12",
        "sarea": "淡水區",
        "mday": "20250920002802",
        "lat": "25.18832",
        "lng": "121.42960",
        "ar": "沙崙路一段1號(前)",
        "sareaen": "Tamsui Dist",
        "snaen": "YouBike2.0_ShaLun Rd. & XinMin St. Intersection",
        "aren": "No. 1, Sec. 1, ShaLun Rd. (Front)",
        "bemp": "9",
        "act": "1"
    },
    {
        "sno": "500223079",
        "sna": "YouBike2.0_程氏古厝",
        "tot": "15",
        "sbi": "8",
        "sarea": "淡水區",
        "mday": "20250919203004",
        "lat": "25.18921",
        "lng": "121.42902",
        "ar": "沙崙路121號(旁)",
        "sareaen": "Tamsui Dist",
        "snaen": "YouBike2.0_Cheng's Old Residence",
        "aren": "No. 121, ShaLun Rd. (Side)",
        "bemp": "7",
        "act": "1"
    },
    {
        "sno": "500223080",
        "sna": "YouBike2.0_新民街120巷",
        "tot": "15",
        "sbi": "6",
        "sarea": "淡水區",
        "mday": "20250920025103",
        "lat": "25.17808",
        "lng": "121.43834",
        "ar": "新民街120巷23號(對側)",
        "sareaen": "Tamsui Dist",
        "snaen": "YouBike2.0_Ln. 120, XinMin St.",
        "aren": "No. 23, Ln. 120, XinMin St. (Opposite)",
        "bemp": "9",
        "act": "1"
    },
    {
        "sno": "500223081",
        "sna": "YouBike2.0_崁頂三後洲路一段路口",
        "tot": "20",
        "sbi": "11",
        "sarea": "淡水區",
        "mday": "20250919234603",
        "lat": "25.20158",
        "lng": "121.42972",
        "ar": "崁頂三路/後洲路一段(東側)",
        "sareaen": "Tamsui Dist",
        "snaen": "YouBike2.0_KanDing 3rd Rd. & Sec. 1, HouZhou Rd. Intersection",
        "aren": "KanDing 3rd Rd. & Sec. 1, HouZhou Rd. (East)",
        "bemp": "9",
        "act": "1"
    },
    {
        "sno": "500223082",
        "sna": "YouBike2.0_崁頂市民活動中心",
        "tot": "20",
        "sbi": "13",
        "sarea": "淡水區",
        "mday": "20250919164005",
        "lat": "25.19772",
        "lng": "121.42870",
        "ar": "新市三路一段231號(前)",
        "sareaen": "Tamsui Dist",
        "snaen": "YouBike2.0_Kanding Activity Center",
        "aren": "No. 231, Sec. 1, XinShi 3rd Rd. (Front)",
        "bemp": "7",
        "act": "1"
    },
    {
        "sno": "500223083",
        "sna": "YouBike2.0_大庄福德宮",
        "tot": "15",
        "sbi": "10",
        "sarea": "淡水區",
        "mday": "20250920003102",
        "lat": "25.18830",
        "lng": "121.42796",
        "ar": "新民街一段127號(對側)",
        "sareaen": "Tamsui Dist",
        "snaen": "YouBike2.0_Dazhuang Fude Temple",
        "aren": "No. 127, Sec. 1, XinMin St. (Opposite)",
        "bemp": "5",
        "act": "1"
    },
    {
        "sno": "500223084",
        "sna": "YouBike2.0_淡水中正路停車場",
        "tot": "24",
        "sbi": "6",
        "sarea": "淡水區",
        "mday": "20250920030202",
        "lat": "25.17308",
        "lng": "121.43586",
        "ar": "中正路332號(對側)",
        "sareaen": "Tamsui Dist",
        "snaen": "YouBike2.0_Tamsui Zhongzheng Road Car Park",
        "aren": "No. 332, ZhongZheng Rd. (Opposite)",
        "bemp": "16",
        "act": "1"
    },
    {
        "sno": "500223085",
        "sna": "YouBike2.0_輕軌崁頂站(西側)",
        "tot": "22",
        "sbi": "10",
        "sarea": "淡水區",
        "mday": "20250920032903",
        "lat": "25.20153",
        "lng": "121.43419",
        "ar": "新市六路二段/沙崙路二段(西側)",
        "sareaen": "Tamsui Dist",
        "snaen": "YouBike2.0_LRT Kanding Sta. (West)",
        "aren": "Sec. 2, XinShi 6th Rd. & Sec. 2, ShaLun Rd. (West)",
        "bemp": "12",
        "act": "1"
    },
    {
        "sno": "500223086",
        "sna": "YouBike2.0_竹圍國小",
        "tot": "28",
        "sbi": "19",
        "sarea": "淡水區",
        "mday": "20250919161003",
        "lat": "25.14638",
        "lng": "121.45989",
        "ar": "中正東路二段143巷2弄口",
        "sareaen": "Tamsui Dist",
        "snaen": "YouBike2.0_Zhuwei Elementary School",
        "aren": "Aly. 2, Ln. 143, Sec. 2, ZhongZheng E. Rd. Intersection",
        "bemp": "9",
        "act": "1"
    },
    {
        "sno": "500224001",
        "sna": "YouBike2.0_深坑松柏街",
        "tot": "34",
        "sbi": "11",
        "sarea": "深坑區",
        "mday": "20250920011202",
        "lat": "25.01096",
        "lng": "121.63852",
        "ar": "松柏街24號西側",
        "sareaen": "shenkeng Dist",
        "snaen": "YouBike2.0_Shenkeng Songbo St.",
        "aren": "No. 24, Songbo St., Shenkeng Dist.(West)",
        "bemp": "23",
        "act": "1"
    },
    {
        "sno": "500224002",
        "sna": "YouBike2.0_深坑區公所(深坑老街)",
        "tot": "30",
        "sbi": "4",
        "sarea": "深坑區",
        "mday": "20250920031402",
        "lat": "25.0015",
        "lng": "121.61631",
        "ar": "文化街45號西側",
        "sareaen": "shenkeng Dist",
        "snaen": "YouBike2.0_Shenkeng District Office(Shenkeng Old Street)",
        "aren": "No.45, Wenhua St., Shenkeng Dist(park)",
        "bemp": "25",
        "act": "1"
    },
    {
        "sno": "500224003",
        "sna": "YouBike2.0_東南科技大學",
        "tot": "18",
        "sbi": "9",
        "sarea": "深坑區",
        "mday": "20250920030602",
        "lat": "25.0033",
        "lng": "121.6025",
        "ar": "北深路三段170號南側",
        "sareaen": "shenkeng Dist",
        "snaen": "YouBike2.0_Tungnan University",
        "aren": "No.170, Sec. 3, Beishen Rd.(South)",
        "bemp": "8",
        "act": "1"
    },
    {
        "sno": "500224004",
        "sna": "YouBike2.0_深坑雲鄉路",
        "tot": "12",
        "sbi": "8",
        "sarea": "深坑區",
        "mday": "20250920032015",
        "lat": "24.99988",
        "lng": "121.62101",
        "ar": "雲鄉路1號北側",
        "sareaen": "shenkeng Dist",
        "snaen": "YouBike2.0_Shenkeng Yunxiang Rd.",
        "aren": "No. 1, Yunxiang Rd.",
        "bemp": "3",
        "act": "1"
    },
    {
        "sno": "500224005",
        "sna": "YouBike2.0_埔新街61巷口",
        "tot": "15",
        "sbi": "3",
        "sarea": "深坑區",
        "mday": "20250920025403",
        "lat": "25.00241",
        "lng": "121.61987",
        "ar": "埔新街73號(對側)",
        "sareaen": "shenkeng Dist",
        "snaen": "YouBike2.0_Ln. 61, Puxin St. Intersection",
        "aren": "No. 73, Puxin St. (Opposite)",
        "bemp": "12",
        "act": "1"
    },
    {
        "sno": "500224006",
        "sna": "YouBike2.0_深坑國中",
        "tot": "13",
        "sbi": "4",
        "sarea": "深坑區",
        "mday": "20250920023302",
        "lat": "25.00167",
        "lng": "121.61889",
        "ar": "文化街56號(對側)",
        "sareaen": "shenkeng Dist",
        "snaen": "YouBike2.0_Shenkeng Junior High School",
        "aren": "No. 65, Wenhua St. (Opposite)",
        "bemp": "7",
        "act": "1"
    },
    {
        "sno": "500225001",
        "sna": "YouBike2.0_野柳地質公園",
        "tot": "60",
        "sbi": "0",
        "sarea": "萬里區",
        "mday": "20250919180316",
        "lat": "25.20428",
        "lng": "121.69042",
        "ar": "港東路161號(對面)",
        "sareaen": "Wanli Dist",
        "snaen": "YouBike2.0_Yehliu Geopark",
        "aren": "No. 161, Gangdong, Wanli Dist.(opposite)",
        "bemp": "0",
        "act": "1"
    },
    {
        "sno": "500225002",
        "sna": "YouBike2.0_大鵬停車場",
        "tot": "15",
        "sbi": "8",
        "sarea": "萬里區",
        "mday": "20250919083801",
        "lat": "25.21194",
        "lng": "121.64711",
        "ar": "加投路/大鵬街口(東側)",
        "sareaen": "Wanli Dist",
        "snaen": "YouBike2.0_Dapeng Parking",
        "aren": "Jiatou Rd. & Dapeng St. Intersection(East)",
        "bemp": "7",
        "act": "1"
    },
    {
        "sno": "500225003",
        "sna": "YouBike2.0_萬里區行政中心",
        "tot": "13",
        "sbi": "5",
        "sarea": "萬里區",
        "mday": "20250919194004",
        "lat": "25.17811",
        "lng": "121.68907",
        "ar": "瑪鋉路123號",
        "sareaen": "Wanli Dist",
        "snaen": "YouBike2.0_Wanli District Admin. Center",
        "aren": "No. 123, Masu Rd.",
        "bemp": "8",
        "act": "1"
    },
    {
        "sno": "500225004",
        "sna": "YouBike2.0_龜吼停車場",
        "tot": "11",
        "sbi": "0",
        "sarea": "萬里區",
        "mday": "20250919180217",
        "lat": "25.19560",
        "lng": "121.68602",
        "ar": "漁澳路33-2號(對面)",
        "sareaen": "Wanli Dist",
        "snaen": "YouBike2.0_Guihou Parking Lot",
        "aren": "No. 33-2, Yu'ao Rd.(Opposite)",
        "bemp": "0",
        "act": "1"
    },
    {
        "sno": "500225005",
        "sna": "YouBike2.0_獅子公園",
        "tot": "20",
        "sbi": "0",
        "sarea": "萬里區",
        "mday": "20250919180217",
        "lat": "25.17489",
        "lng": "121.70565",
        "ar": "獅子公園",
        "sareaen": "Wanli Dist",
        "snaen": "YouBike2.0_Lion Park",
        "aren": "Lion Park",
        "bemp": "0",
        "act": "1"
    },
    {
        "sno": "500225006",
        "sna": "YouBike2.0_翡翠灣",
        "tot": "38",
        "sbi": "0",
        "sarea": "萬里區",
        "mday": "20250919180217",
        "lat": "25.18676",
        "lng": "121.68353",
        "ar": "瑪鋉路/玉田路口(東南側)",
        "sareaen": "Wanli Dist",
        "snaen": "YouBike2.0_Green Bay",
        "aren": "MaSu Rd. & YuTian. Intersection",
        "bemp": "0",
        "act": "1"
    },
    {
        "sno": "500225007",
        "sna": "YouBike2.0_翡翠灣停車場",
        "tot": "54",
        "sbi": "0",
        "sarea": "萬里區",
        "mday": "20250919180217",
        "lat": "25.19117",
        "lng": "121.68493",
        "ar": "石角路33號對面",
        "sareaen": "Wanli Dist",
        "snaen": "YouBike2.0_Green Bay Car Park",
        "aren": "No. 33, ShiJiao (Opposite)",
        "bemp": "0",
        "act": "1"
    },
    {
        "sno": "500226002",
        "sna": "YouBike2.0_深澳漁港",
        "tot": "30",
        "sbi": "5",
        "sarea": "瑞芳區",
        "mday": "20250920014104",
        "lat": "25.12997",
        "lng": "121.81857",
        "ar": "深澳路16-7號",
        "sareaen": "Ruifang Dist",
        "snaen": "YouBike2.0_Shen’ao Fishing Port",
        "aren": "No. 16-7, Shen'ao Rd. (front)",
        "bemp": "25",
        "act": "1"
    },
    {
        "sno": "500226003",
        "sna": "YouBike2.0_瑞峰橋",
        "tot": "44",
        "sbi": "15",
        "sarea": "瑞芳區",
        "mday": "20250919200003",
        "lat": "25.10712",
        "lng": "121.81041",
        "ar": "三爪子坑路115號(對面汽車停車格)",
        "sareaen": "Ruifang Dist",
        "snaen": "YouBike2.0_Ruifeng Bridge",
        "aren": "No.115, Sanzhuazikeng Rd.(opposite)",
        "bemp": "29",
        "act": "1"
    },
    {
        "sno": "500226005",
        "sna": "YouBike2.0_瑞芳火車站",
        "tot": "28",
        "sbi": "5",
        "sarea": "瑞芳區",
        "mday": "20250920013017",
        "lat": "25.10851",
        "lng": "121.80650",
        "ar": "民生街3號",
        "sareaen": "Ruifang Dist",
        "snaen": "YouBike2.0_Ruifang Train Station",
        "aren": "No.14, Railway Ln., Minquan St., Ruifang Dist.",
        "bemp": "23",
        "act": "1"
    },
    {
        "sno": "500226006",
        "sna": "YouBike2.0_瑞芳運動公園",
        "tot": "12",
        "sbi": "4",
        "sarea": "瑞芳區",
        "mday": "20250919143403",
        "lat": "25.10284",
        "lng": "121.82177",
        "ar": "員山子路23號",
        "sareaen": "Ruifang Dist",
        "snaen": "YouBike2.0_Ruifang Sports Park",
        "aren": "No. 23, Yuanshanzi Rd.",
        "bemp": "8",
        "act": "1"
    },
    {
        "sno": "500226007",
        "sna": "YouBike2.0_猴硐火車站",
        "tot": "60",
        "sbi": "0",
        "sarea": "瑞芳區",
        "mday": "20250920011502",
        "lat": "25.08647",
        "lng": "121.82719",
        "ar": "柴寮路70號",
        "sareaen": "Ruifang Dist",
        "snaen": "YouBike2.0_Houtong Railway Station",
        "aren": "No. 70, Chailiao Rd., Ruifang Dist.",
        "bemp": "0",
        "act": "1"
    },
    {
        "sno": "500226008",
        "sna": "YouBike2.0_三貂嶺隧道(金字橋)",
        "tot": "30",
        "sbi": "0",
        "sarea": "瑞芳區",
        "mday": "20250919180217",
        "lat": "25.06095",
        "lng": "121.82316",
        "ar": "魚寮路22號南側",
        "sareaen": "Ruifang Dist",
        "snaen": "YouBike2.0_Sandiaoling  tunnel (Jinzi Bridge)",
        "aren": "No. 22, Yuliao Rd(South)",
        "bemp": "0",
        "act": "1"
    },
    {
        "sno": "500226009",
        "sna": "YouBike2.0_水湳洞停車場",
        "tot": "20",
        "sbi": "0",
        "sarea": "瑞芳區",
        "mday": "20250919180217",
        "lat": "25.12221",
        "lng": "121.86443",
        "ar": "明里路/洞頂路(東側)",
        "sareaen": "Ruifang Dist",
        "snaen": "YouBike2.0_ShueiNanDong Car Park",
        "aren": "MingLi Rd. & DongDing Rd. (East)",
        "bemp": "0",
        "act": "1"
    },
    {
        "sno": "500226010",
        "sna": "YouBike2.0_深澳鐵道自行車八斗子站",
        "tot": "15",
        "sbi": "0",
        "sarea": "瑞芳區",
        "mday": "20250919180217",
        "lat": "25.13417",
        "lng": "121.80548",
        "ar": "建基路二段117號(對側)",
        "sareaen": "Ruifang Dist",
        "snaen": "YouBike2.0_Badouzi Rail Bike Station",
        "aren": "No. 117, Sec. 2, JianJi Rd. (Opposite)",
        "bemp": "0",
        "act": "1"
    },
    {
        "sno": "500226011",
        "sna": "YouBike2.0_瑞芳棒球場",
        "tot": "25",
        "sbi": "4",
        "sarea": "瑞芳區",
        "mday": "20250919053602",
        "lat": "25.10666",
        "lng": "121.81884",
        "ar": "明燈路一段201巷105之14號(旁)",
        "sareaen": "Ruifang Dist",
        "snaen": "YouBike2.0_Ruifang  Baseball Court",
        "aren": "No. 105-14, Ln. 201, Sec. 1, MingDeng Rd. (Side)",
        "bemp": "21",
        "act": "1"
    },
    {
        "sno": "500227001",
        "sna": "YouBike2.0_天山公園(永安街)",
        "tot": "30",
        "sbi": "22",
        "sarea": "新店區",
        "mday": "20250920024603",
        "lat": "24.98652",
        "lng": "121.51753",
        "ar": "永安街22號(對側)",
        "sareaen": "Xindian Dist",
        "snaen": "YouBike2.0_Tianshan Park (Yong'an St.)",
        "aren": "No. 22, Yong'an St.(opposite)",
        "bemp": "3",
        "act": "1"
    },
    {
        "sno": "500227002",
        "sna": "YouBike2.0_國家人權博物館",
        "tot": "15",
        "sbi": "2",
        "sarea": "新店區",
        "mday": "20250920011115",
        "lat": "24.98835",
        "lng": "121.53198",
        "ar": "復興路131號(旁)",
        "sareaen": "Xindian Dist",
        "snaen": "YouBike2.0_National Human Rights Museum",
        "aren": "No. 131, Fuxing Rd.",
        "bemp": "13",
        "act": "1"
    },
    {
        "sno": "500227003",
        "sna": "YouBike2.0_中興寶橋路口",
        "tot": "61",
        "sbi": "0",
        "sarea": "新店區",
        "mday": "20250920031314",
        "lat": "24.97618",
        "lng": "121.54687",
        "ar": "中興路三段1號(旁)",
        "sareaen": "Xindian Dist",
        "snaen": "YouBike2.0_Zhongxing Rd. & Baoqiao Rd. Intersection",
        "aren": "No. 1, Sec. 3, Zhongxing Rd.",
        "bemp": "59",
        "act": "1"
    },
    {
        "sno": "500227004",
        "sna": "YouBike2.0_北新國小",
        "tot": "49",
        "sbi": "4",
        "sarea": "新店區",
        "mday": "20250920023504",
        "lat": "24.97423",
        "lng": "121.54443",
        "ar": "寶橋路8號(前人行道)",
        "sareaen": "Xindian Dist",
        "snaen": "YouBike2.0_Beixin Elementary School",
        "aren": "No. 8, Baoqiao Rd.",
        "bemp": "45",
        "act": "1"
    },
    {
        "sno": "500227005",
        "sna": "YouBike2.0_捷運十四張站",
        "tot": "95",
        "sbi": "4",
        "sarea": "新店區",
        "mday": "20250920031301",
        "lat": "24.983819",
        "lng": "121.528330",
        "ar": "民權路282號(旁)",
        "sareaen": "Xindian Dist",
        "snaen": "YouBike2.0_MRT Shisizhang Sta.",
        "aren": "No. 282, Minquan Rd.",
        "bemp": "91",
        "act": "1"
    },
    {
        "sno": "500227006",
        "sna": "YouBike2.0_陽光橋",
        "tot": "62",
        "sbi": "34",
        "sarea": "新店區",
        "mday": "20250920030417",
        "lat": "24.97924",
        "lng": "121.52477",
        "ar": "中山路/央北一路口",
        "sareaen": "Xindian Dist",
        "snaen": "YouBike2.0_Yangguang Bridge",
        "aren": "Zhongshan Rd. & Yangbei 1st Rd. Intersection",
        "bemp": "17",
        "act": "1"
    },
    {
        "sno": "500227007",
        "sna": "YouBike2.0_捷運小碧潭站(1號出口)",
        "tot": "29",
        "sbi": "7",
        "sarea": "新店區",
        "mday": "20250920002802",
        "lat": "24.97152",
        "lng": "121.53029",
        "ar": "環河路23號(旁捷運站內)",
        "sareaen": "Xindian Dist",
        "snaen": "YouBike2.0_MRT Xiaobitan Sta. (Exit 1)",
        "aren": "No. 23, Huanhe Rd.(MRT inside)",
        "bemp": "22",
        "act": "1"
    },
    {
        "sno": "500227008",
        "sna": "YouBike2.0_新店高中",
        "tot": "47",
        "sbi": "17",
        "sarea": "新店區",
        "mday": "20250920032304",
        "lat": "24.97418",
        "lng": "121.53421",
        "ar": "三民路161號(旁)",
        "sareaen": "Xindian Dist",
        "snaen": "YouBike2.0_Hsin Tien Senior High School",
        "aren": "No. 161, Sanmin Rd.",
        "bemp": "30",
        "act": "1"
    },
    {
        "sno": "500227009",
        "sna": "YouBike2.0_中正國小",
        "tot": "36",
        "sbi": "16",
        "sarea": "新店區",
        "mday": "20250920033003",
        "lat": "24.9714",
        "lng": "121.53646",
        "ar": "三民路34號(前)",
        "sareaen": "Xindian Dist",
        "snaen": "YouBike2.0_Zhongzheng Elementary School",
        "aren": "No. 34, Sanmin Rd.",
        "bemp": "13",
        "act": "1"
    },
    {
        "sno": "500227010",
        "sna": "YouBike2.0_崇光女中",
        "tot": "39",
        "sbi": "4",
        "sarea": "新店區",
        "mday": "20250920025005",
        "lat": "24.97156",
        "lng": "121.53904",
        "ar": "三民路18號(旁)",
        "sareaen": "Xindian Dist",
        "snaen": "YouBike2.0_Our Lady Of Providence Girl's High School",
        "aren": "No. 18, Sanmin Rd.",
        "bemp": "35",
        "act": "1"
    },
    {
        "sno": "500227011",
        "sna": "YouBike2.0_寶橋路78巷",
        "tot": "44",
        "sbi": "29",
        "sarea": "新店區",
        "mday": "20250920021602",
        "lat": "24.97368",
        "lng": "121.5476",
        "ar": "寶橋路78巷10號(旁高速公路橋下空間)",
        "sareaen": "Xindian Dist",
        "snaen": "YouBike2.0_Ln. 78, Baoqiao Rd.",
        "aren": "No.10, Ln. 78, Baoqiao Rd.",
        "bemp": "15",
        "act": "1"
    },
    {
        "sno": "500227012",
        "sna": "YouBike2.0_寶橋路235巷口",
        "tot": "44",
        "sbi": "3",
        "sarea": "新店區",
        "mday": "20250920001318",
        "lat": "24.97955",
        "lng": "121.55234",
        "ar": "寶橋路235巷2號(旁)",
        "sareaen": "Xindian Dist",
        "snaen": "YouBike2.0_Ln. 235, Baoqiao Rd.",
        "aren": "No. 2, Ln. 235, Baoqiao Rd.",
        "bemp": "41",
        "act": "1"
    },
    {
        "sno": "500227013",
        "sna": "YouBike2.0_小金門友誼公園",
        "tot": "60",
        "sbi": "18",
        "sarea": "新店區",
        "mday": "20250920030004",
        "lat": "24.97699",
        "lng": "121.53791",
        "ar": "民族路110號東側",
        "sareaen": "Xindian Dist",
        "snaen": "YouBike2.0_Little Kinmen Park",
        "aren": "Minzu Rd./Jianxing St.",
        "bemp": "39",
        "act": "1"
    },
    {
        "sno": "500227014",
        "sna": "YouBike2.0_五峰國中",
        "tot": "34",
        "sbi": "27",
        "sarea": "新店區",
        "mday": "20250920031902",
        "lat": "24.96601",
        "lng": "121.54311",
        "ar": "行政街20號北側",
        "sareaen": "Xindian Dist",
        "snaen": "YouBike2.0_Wufeng Junior High School",
        "aren": "No. 20, Xingzheng St., Xindian Dist.",
        "bemp": "4",
        "act": "1"
    },
    {
        "sno": "500227015",
        "sna": "YouBike2.0_大鵬華城",
        "tot": "31",
        "sbi": "16",
        "sarea": "新店區",
        "mday": "20250920014402",
        "lat": "24.99116",
        "lng": "121.53398",
        "ar": "新北市新店區中正路700巷3號",
        "sareaen": "Xindian Dist",
        "snaen": "YouBike2.0_Dapeng community",
        "aren": "No. 3, Lane 700 Chung Cheng Road, Xindian District",
        "bemp": "14",
        "act": "1"
    },
    {
        "sno": "500227016",
        "sna": "YouBike2.0_捷運大坪林站(5號出口)",
        "tot": "92",
        "sbi": "21",
        "sarea": "新店區",
        "mday": "20250920025403",
        "lat": "24.98288",
        "lng": "121.54376",
        "ar": "中興路三段224號(對面)",
        "sareaen": "Xindian Dist",
        "snaen": "YouBike2.0_MRT DaPingLin Station(Exit.5)",
        "aren": "No. 224, Sec. 3, Zhongxing Rd.(opposite)",
        "bemp": "62",
        "act": "1"
    },
    {
        "sno": "500227018",
        "sna": "YouBike2.0_忠誠里(北新路2段97巷)",
        "tot": "40",
        "sbi": "4",
        "sarea": "新店區",
        "mday": "20250920021602",
        "lat": "24.97427",
        "lng": "121.54278",
        "ar": "北新路二段/北新路二段97巷",
        "sareaen": "Xindian Dist",
        "snaen": "YouBike2.0_Zhongcheng Village (Ln. 97, Sec. 2, Beixin Rd)",
        "aren": "Sec. 2, Beixin Rd./Ln. 97, Sec. 2, Beixin Rd.",
        "bemp": "36",
        "act": "1"
    },
    {
        "sno": "500227019",
        "sna": "YouBike2.0_新店公有中央市場",
        "tot": "42",
        "sbi": "18",
        "sarea": "新店區",
        "mday": "20250920031902",
        "lat": "24.97531",
        "lng": "121.52729",
        "ar": "中央四街64號對面",
        "sareaen": "Xindian Dist",
        "snaen": "YouBike2.0_Zhongyang Market",
        "aren": "No.64, Zhongyang 4th St. (opposite)",
        "bemp": "24",
        "act": "1"
    },
    {
        "sno": "500227020",
        "sna": "YouBike2.0_建國民權路口",
        "tot": "32",
        "sbi": "2",
        "sarea": "新店區",
        "mday": "20250920033603",
        "lat": "24.98318",
        "lng": "121.53746",
        "ar": "建國路259號前人行道",
        "sareaen": "Xindian Dist",
        "snaen": "YouBike2.0_Jianguo Minquan Intersection",
        "aren": "No.259, Jianguo Rd.",
        "bemp": "29",
        "act": "1"
    },
    {
        "sno": "500227021",
        "sna": "YouBike2.0_捷運新店站",
        "tot": "55",
        "sbi": "19",
        "sarea": "新店區",
        "mday": "20250920032702",
        "lat": "24.95861",
        "lng": "121.53866",
        "ar": "中興路一段34號前(高架橋下停車場)",
        "sareaen": "Xindian Dist",
        "snaen": "YouBike2.0_MRT Xindian Sta.",
        "aren": "No.34, Sec. 1, Zhongxing Rd.",
        "bemp": "34",
        "act": "1"
    },
    {
        "sno": "500227022",
        "sna": "YouBike2.0_安和市民活動中心",
        "tot": "25",
        "sbi": "24",
        "sarea": "新店區",
        "mday": "20250920015914",
        "lat": "24.97532",
        "lng": "121.51569",
        "ar": "安興路67號對面空地 (高架橋下)",
        "sareaen": "Xindian Dist",
        "snaen": "YouBike2.0_Anhe Activity Center",
        "aren": "No.67, Anxing Rd.(oppsite)",
        "bemp": "0",
        "act": "1"
    },
    {
        "sno": "500227023",
        "sna": "YouBike2.0_安和公園",
        "tot": "44",
        "sbi": "37",
        "sarea": "新店區",
        "mday": "20250920024003",
        "lat": "24.97411",
        "lng": "121.51885",
        "ar": "新店區安和路二段163號(東南側空地)",
        "sareaen": "Xindian Dist",
        "snaen": "YouBike2.0_Anhe Park",
        "aren": "No.163, Sec. 2, Anhe Rd., Xindian Dist.",
        "bemp": "4",
        "act": "1"
    },
    {
        "sno": "500227024",
        "sna": "YouBike2.0_綠湖公園",
        "tot": "44",
        "sbi": "2",
        "sarea": "新店區",
        "mday": "20250920034002",
        "lat": "24.97756",
        "lng": "121.54751",
        "ar": "中興路三段6號(旁)",
        "sareaen": "Xindian Dist",
        "snaen": "YouBike2.0_Green Lake Park",
        "aren": "No. 6, Sec. 3, Zhongxing Rd., Xindian Dist.",
        "bemp": "40",
        "act": "1"
    },
    {
        "sno": "500227025",
        "sna": "YouBike2.0_安成安德街口",
        "tot": "29",
        "sbi": "6",
        "sarea": "新店區",
        "mday": "20250920031102",
        "lat": "24.96115",
        "lng": "121.50999",
        "ar": "安成街26號至36號對面",
        "sareaen": "Xindian Dist",
        "snaen": "YouBike2.0_Ancheng & Ande Intersection",
        "aren": "No.26 ~ No.36, Ancheng St.(oppsite)",
        "bemp": "22",
        "act": "1"
    },
    {
        "sno": "500227026",
        "sna": "YouBike2.0_青潭河濱公園",
        "tot": "20",
        "sbi": "9",
        "sarea": "新店區",
        "mday": "20250920012103",
        "lat": "24.95091",
        "lng": "121.5474",
        "ar": "新烏路一段11弄11號(對面)",
        "sareaen": "Xindian Dist",
        "snaen": "YouBike2.0_Qingtan Riverside Park",
        "aren": "No. 11, Aly. 11, Sec. 1, Xinwu Rd., Xindian Dist.(opposite)",
        "bemp": "11",
        "act": "1"
    },
    {
        "sno": "500227027",
        "sna": "YouBike2.0_安康立體停車場",
        "tot": "30",
        "sbi": "7",
        "sarea": "新店區",
        "mday": "20250920023902",
        "lat": "24.96261",
        "lng": "121.51267",
        "ar": "安德街2號(前)",
        "sareaen": "Xindian Dist",
        "snaen": "YouBike2.0_An Kang Parking Lot",
        "aren": "No. 2, Ande St., Xindian Dist.",
        "bemp": "22",
        "act": "1"
    },
    {
        "sno": "500227028",
        "sna": "YouBike2.0_中印青潭廠",
        "tot": "25",
        "sbi": "5",
        "sarea": "新店區",
        "mday": "20250920022202",
        "lat": "24.95446",
        "lng": "121.55947",
        "ar": "北宜路二段399號(旁)",
        "sareaen": "Xindian Dist",
        "snaen": "YouBike2.0_CEPP Qingtan Factory",
        "aren": "No. 399, Sec. 2, Beiyi Rd., Xindian Dist.",
        "bemp": "20",
        "act": "1"
    },
    {
        "sno": "500227029",
        "sna": "YouBike2.0_中正民權路口",
        "tot": "92",
        "sbi": "3",
        "sarea": "新店區",
        "mday": "20250920030803",
        "lat": "24.98263",
        "lng": "121.5336",
        "ar": "中正路489號(旁)",
        "sareaen": "Xindian Dist",
        "snaen": "YouBike2.0_Zhongzheng & Minquan Intersection",
        "aren": "No. 489, Zhongzheng Rd., Xindian Dist.",
        "bemp": "89",
        "act": "1"
    },
    {
        "sno": "500227030",
        "sna": "YouBike2.0_惠國市場",
        "tot": "36",
        "sbi": "15",
        "sarea": "新店區",
        "mday": "20250920031703",
        "lat": "24.97042",
        "lng": "121.54338",
        "ar": "中正路75巷至中正路95巷間",
        "sareaen": "Xindian Dist",
        "snaen": "YouBike2.0_Huiguo Market",
        "aren": "Ln. 75 to Ln. 95 , Zhongzheng Rd.",
        "bemp": "21",
        "act": "1"
    },
    {
        "sno": "500227031",
        "sna": "YouBike2.0_中興中正路口",
        "tot": "30",
        "sbi": "21",
        "sarea": "新店區",
        "mday": "20250920020503",
        "lat": "24.96991",
        "lng": "121.54617",
        "ar": "中興路二段41號(前)",
        "sareaen": "Xindian Dist",
        "snaen": "YouBike2.0_Zhongxing & Zhongzheng Intersection",
        "aren": "No.41, Sec. 2, Zhongxing Rd., Xindian Dist.",
        "bemp": "8",
        "act": "1"
    },
    {
        "sno": "500227032",
        "sna": "YouBike2.0_新店行政園區",
        "tot": "93",
        "sbi": "4",
        "sarea": "新店區",
        "mday": "20250920025202",
        "lat": "24.96757",
        "lng": "121.54205",
        "ar": "北新路一段88巷1號(對面)",
        "sareaen": "Xindian Dist",
        "snaen": "YouBike2.0_Xindian Administrative Park",
        "aren": "No. 1, Ln. 88, Sec. 1, Beixin Rd., Xindian Dist.(opposite)",
        "bemp": "89",
        "act": "1"
    },
    {
        "sno": "500227033",
        "sna": "YouBike2.0_光明街",
        "tot": "27",
        "sbi": "16",
        "sarea": "新店區",
        "mday": "20250920032702",
        "lat": "24.96316",
        "lng": "121.54009",
        "ar": "光明街185號(對面)",
        "sareaen": "Xindian Dist",
        "snaen": "YouBike2.0_Guangming St.",
        "aren": "No.185, Guangming St., Xindian Dist.(opposite)",
        "bemp": "10",
        "act": "1"
    },
    {
        "sno": "500227034",
        "sna": "YouBike2.0_捷運新店區公所站(1號出口)",
        "tot": "42",
        "sbi": "4",
        "sarea": "新店區",
        "mday": "20250920032002",
        "lat": "24.96737",
        "lng": "121.54101",
        "ar": "中華路3號(對面)",
        "sareaen": "Xindian Dist",
        "snaen": "YouBike2.0_MRT Xindian District Office Sta.(Exit.1)",
        "aren": "No.3, Zhonghua Rd., Xindian Dist.",
        "bemp": "38",
        "act": "1"
    },
    {
        "sno": "500227035",
        "sna": "YouBike2.0_新北市立圖書館新店分館",
        "tot": "35",
        "sbi": "2",
        "sarea": "新店區",
        "mday": "20250920031703",
        "lat": "24.98214",
        "lng": "121.5409",
        "ar": "新店區北新路三段105巷2號(路側)",
        "sareaen": "Xindian Dist",
        "snaen": "YouBike2.0_New Taipei City Library Xindian Branch",
        "aren": "No.2, Ln. 105, Sec. 3, Beixin Rd., Xindian Dist.",
        "bemp": "33",
        "act": "1"
    },
    {
        "sno": "500227036",
        "sna": "YouBike2.0_中興寶慶街口",
        "tot": "49",
        "sbi": "26",
        "sarea": "新店區",
        "mday": "20250920032802",
        "lat": "24.98694",
        "lng": "121.54195",
        "ar": "中興路三段/寶慶街",
        "sareaen": "Xindian Dist",
        "snaen": "YouBike2.0_Zhongxing & Baoqing Intersection",
        "aren": "Sec. 3, Zhongxing Rd./Baoqing St.",
        "bemp": "22",
        "act": "1"
    },
    {
        "sno": "500227037",
        "sna": "YouBike2.0_民生路156巷",
        "tot": "31",
        "sbi": "20",
        "sarea": "新店區",
        "mday": "20250920003503",
        "lat": "24.98202",
        "lng": "121.52751",
        "ar": "民生路156巷80號(旁)",
        "sareaen": "Xindian Dist",
        "snaen": "YouBike2.0_Ln. 156, Minsheng Rd.",
        "aren": "No. 80, Ln. 156, Minsheng Rd. (Side)",
        "bemp": "11",
        "act": "1"
    },
    {
        "sno": "500227038",
        "sna": "YouBike2.0_新和活動中心",
        "tot": "37",
        "sbi": "30",
        "sarea": "新店區",
        "mday": "20250920024903",
        "lat": "24.98677",
        "lng": "121.52183",
        "ar": "新和街109號",
        "sareaen": "Xindian Dist",
        "snaen": "YouBike2.0_Xinhe Activity Center",
        "aren": "No. 109, Xinhe St., Xindian Dist.",
        "bemp": "7",
        "act": "1"
    },
    {
        "sno": "500227039",
        "sna": "YouBike2.0_新店新和國小",
        "tot": "36",
        "sbi": "22",
        "sarea": "新店區",
        "mday": "20250920002904",
        "lat": "24.98498",
        "lng": "121.51768",
        "ar": "安和路三段100號",
        "sareaen": "Xindian Dist",
        "snaen": "YouBike2.0_Hsin Tien Xinhe Elementary School",
        "aren": "No.100, Sec. 3, Anhe Rd., Xindian Dist.",
        "bemp": "13",
        "act": "1"
    },
    {
        "sno": "500227040",
        "sna": "YouBike2.0_陽光Park社區",
        "tot": "21",
        "sbi": "18",
        "sarea": "新店區",
        "mday": "20250919231103",
        "lat": "24.97940",
        "lng": "121.51555",
        "ar": "安興路121號",
        "sareaen": "Xindian Dist",
        "snaen": "YouBike2.0_The Young Area Community",
        "aren": "No. 121, Anxing Rd., Xindian Dist.",
        "bemp": "3",
        "act": "1"
    },
    {
        "sno": "500227041",
        "sna": "YouBike2.0_安康高中",
        "tot": "38",
        "sbi": "19",
        "sarea": "新店區",
        "mday": "20250919234702",
        "lat": "24.96927",
        "lng": "121.51521",
        "ar": "安興路25號",
        "sareaen": "Xindian Dist",
        "snaen": "YouBike2.0_An Kang High School",
        "aren": "No. 25, Anxing Rd., Xindian Dist.",
        "bemp": "19",
        "act": "1"
    },
    {
        "sno": "500227042",
        "sna": "YouBike2.0_柴埕市民活動中心",
        "tot": "30",
        "sbi": "12",
        "sarea": "新店區",
        "mday": "20250920001202",
        "lat": "24.96678",
        "lng": "121.51648",
        "ar": "安民街73號",
        "sareaen": "Xindian Dist",
        "snaen": "YouBike2.0_Chaicheng Civic Activity Center",
        "aren": "No. 73, Anmin St.",
        "bemp": "18",
        "act": "1"
    },
    {
        "sno": "500227043",
        "sna": "YouBike2.0_安光公園",
        "tot": "32",
        "sbi": "21",
        "sarea": "新店區",
        "mday": "20250920023103",
        "lat": "24.96423",
        "lng": "121.51446",
        "ar": "安民街3巷25號北側",
        "sareaen": "Xindian Dist",
        "snaen": "YouBike2.0_Anguang Park",
        "aren": "No. 25, Ln. 3, Anmin St., Xindian Dist.",
        "bemp": "9",
        "act": "1"
    },
    {
        "sno": "500227044",
        "sna": "YouBike2.0_安居公教住宅",
        "tot": "22",
        "sbi": "6",
        "sarea": "新店區",
        "mday": "20250920012804",
        "lat": "24.95950",
        "lng": "121.51293",
        "ar": "安忠路52號",
        "sareaen": "Xindian Dist",
        "snaen": "YouBike2.0_Anju Civil Service Housing",
        "aren": "No. 52, Anzhong Rd., Xindian Dist.",
        "bemp": "16",
        "act": "1"
    },
    {
        "sno": "500227045",
        "sna": "YouBike2.0_碧潭西岸",
        "tot": "37",
        "sbi": "16",
        "sarea": "新店區",
        "mday": "20250920015602",
        "lat": "24.95656",
        "lng": "121.5348",
        "ar": "碧潭路2號",
        "sareaen": "Xindian Dist",
        "snaen": "YouBike2.0_Bitan West Coast",
        "aren": "No.2, Bitan Rd., Xindian Dist.",
        "bemp": "20",
        "act": "1"
    },
    {
        "sno": "500227046",
        "sna": "YouBike2.0_碧潭渡船頭",
        "tot": "26",
        "sbi": "11",
        "sarea": "新店區",
        "mday": "20250920024304",
        "lat": "24.95310",
        "lng": "121.53746",
        "ar": "新店路36號西側",
        "sareaen": "Xindian Dist",
        "snaen": "YouBike2.0_Bitan Ferry",
        "aren": "No.36, Xindian Rd., Xindian Dist.(West)",
        "bemp": "15",
        "act": "1"
    },
    {
        "sno": "500227047",
        "sna": "YouBike2.0_文山國中",
        "tot": "25",
        "sbi": "22",
        "sarea": "新店區",
        "mday": "20250920020802",
        "lat": "24.95521",
        "lng": "121.53937",
        "ar": "北宜路一段107-2號",
        "sareaen": "Xindian Dist",
        "snaen": "YouBike2.0_Wenshan Junior High School",
        "aren": "No. 107-2, Sec. 1, Beiyi Rd., Xindian Dist.",
        "bemp": "2",
        "act": "1"
    },
    {
        "sno": "500227048",
        "sna": "YouBike2.0_青潭國小",
        "tot": "27",
        "sbi": "13",
        "sarea": "新店區",
        "mday": "20250920033302",
        "lat": "24.9531",
        "lng": "121.55181",
        "ar": "北宜路二段80號",
        "sareaen": "Xindian Dist",
        "snaen": "YouBike2.0_Qing-Tan Elementary School",
        "aren": "No. 80, Sec. 2, Beiyi Rd.",
        "bemp": "13",
        "act": "1"
    },
    {
        "sno": "500227049",
        "sna": "YouBike2.0_中正路284巷",
        "tot": "29",
        "sbi": "19",
        "sarea": "新店區",
        "mday": "20250920031102",
        "lat": "24.9747",
        "lng": "121.53842",
        "ar": "中正路284巷4弄3號南側",
        "sareaen": "Xindian Dist",
        "snaen": "YouBike2.0_Ln. 284, Zhongzheng Rd.",
        "aren": "No.3, Aly.4, Ln. 284, Zhongzheng Rd., Xindian Dist.(South)",
        "bemp": "10",
        "act": "1"
    },
    {
        "sno": "500227050",
        "sna": "YouBike2.0_央北社會住宅",
        "tot": "58",
        "sbi": "29",
        "sarea": "新店區",
        "mday": "20250920031902",
        "lat": "24.98263",
        "lng": "121.52643",
        "ar": "央北二路十四張口(西南側人行道)",
        "sareaen": "Xindian Dist",
        "snaen": "YouBike2.0_Yangbei Youth Rental House",
        "aren": "Yangbei 2nd Rd. & Shisizhang Rd. Intersection (Southwest)",
        "bemp": "24",
        "act": "1"
    },
    {
        "sno": "500227051",
        "sna": "YouBike2.0_中興路2段100巷口",
        "tot": "21",
        "sbi": "13",
        "sarea": "新店區",
        "mday": "20250920033503",
        "lat": "24.97136",
        "lng": "121.5475",
        "ar": "五峰路63巷/中興路二段100巷口(天橋旁)",
        "sareaen": "Xindian Dist",
        "snaen": "YouBike2.0_Ln. 100, Sec. 2, Zhongxing Rd.",
        "aren": "Ln. 63, Wufeng Rd./Ln. 100, Sec. 2, Zhongxing Rd., Xindian Dist.",
        "bemp": "8",
        "act": "1"
    },
    {
        "sno": "500227052",
        "sna": "YouBike2.0_台北慈濟醫院",
        "tot": "40",
        "sbi": "8",
        "sarea": "新店區",
        "mday": "20250920015102",
        "lat": "24.9859",
        "lng": "121.537",
        "ar": "建國路289號旁空地",
        "sareaen": "Xindian Dist",
        "snaen": "YouBike2.0_Taipei Tzu Chi Hospital",
        "aren": "No.289, Jianguo Rd.",
        "bemp": "32",
        "act": "1"
    },
    {
        "sno": "500227053",
        "sna": "YouBike2.0_捷運七張站(1號出口)",
        "tot": "42",
        "sbi": "4",
        "sarea": "新店區",
        "mday": "20250920030602",
        "lat": "24.974996",
        "lng": "121.542767",
        "ar": "北新路二段/北新路二段121巷",
        "sareaen": "Xindian Dist",
        "snaen": "YouBike2.0_MRT Qizhang Sta. (Exit 1)",
        "aren": "Sec. 2, Beixin Rd./Ln. 121, Sec. 2, Beixin Rd.",
        "bemp": "37",
        "act": "1"
    },
    {
        "sno": "500227054",
        "sna": "YouBike2.0_捷運大坪林站(1號出口)",
        "tot": "47",
        "sbi": "5",
        "sarea": "新店區",
        "mday": "20250920033503",
        "lat": "24.9828",
        "lng": "121.541",
        "ar": "北新路三段129號(右側人行道)",
        "sareaen": "Xindian Dist",
        "snaen": "YouBike2.0_MRT DaPingLin Station(Beixin & MinQuan Intersection)",
        "aren": "No.129, Sec. 3, Beixin Rd., Xindian Dist.",
        "bemp": "42",
        "act": "1"
    },
    {
        "sno": "500227055",
        "sna": "YouBike2.0_新店高中(中央路)",
        "tot": "85",
        "sbi": "19",
        "sarea": "新店區",
        "mday": "20250920031102",
        "lat": "24.97508",
        "lng": "121.53103",
        "ar": "中央路97號(對面)",
        "sareaen": "Xindian Dist",
        "snaen": "YouBike2.0_Hsin Tien Senior High School (Zhongyang Rd.)",
        "aren": "No. 97, Zhongyang Rd., Xindian Dist.(opposite)",
        "bemp": "66",
        "act": "1"
    },
    {
        "sno": "500227056",
        "sna": "YouBike2.0_十四張央北二路口(波爾多社區)",
        "tot": "40",
        "sbi": "13",
        "sarea": "新店區",
        "mday": "20250920015102",
        "lat": "24.98285",
        "lng": "121.52635",
        "ar": "十四張路/央北二路口(西北側人行道)",
        "sareaen": "Xindian Dist",
        "snaen": "YouBike2.0_Shisizhang & Yangbei 2nd Intersection",
        "aren": "Shisizhang & Yangbei 2nd Intersection",
        "bemp": "27",
        "act": "1"
    },
    {
        "sno": "500227057",
        "sna": "YouBike2.0_寶高智慧產業園區",
        "tot": "35",
        "sbi": "1",
        "sarea": "新店區",
        "mday": "20250919205116",
        "lat": "24.9775",
        "lng": "121.551",
        "ar": "寶高路10號(旁)",
        "sareaen": "Xindian Dist",
        "snaen": "YouBike2.0_Baogao Intelligent Industrial Park",
        "aren": "No. 10, Baogao Rd.",
        "bemp": "34",
        "act": "1"
    },
    {
        "sno": "500227058",
        "sna": "YouBike2.0_順德街(御中央3社區)",
        "tot": "22",
        "sbi": "20",
        "sarea": "新店區",
        "mday": "20250920005615",
        "lat": "24.9789",
        "lng": "121.53",
        "ar": "斯馨路70巷60號(旁)",
        "sareaen": "Xindian Dist",
        "snaen": "YouBike2.0_Shunde St.",
        "aren": "No. 60, Ln. 70, Sixin Rd.",
        "bemp": "2",
        "act": "1"
    },
    {
        "sno": "500227059",
        "sna": "YouBike2.0_台灣科技總部",
        "tot": "11",
        "sbi": "0",
        "sarea": "新店區",
        "mday": "20250920012216",
        "lat": "24.97344",
        "lng": "121.54905",
        "ar": "寶興路47號西側",
        "sareaen": "Xindian Dist",
        "snaen": "YouBike2.0_Taiwan Technology Headquarter",
        "aren": "No. 47, Baoxing Rd.(West)",
        "bemp": "10",
        "act": "1"
    },
    {
        "sno": "500227060",
        "sna": "YouBike2.0_央北三中央路口(全陽大璽)",
        "tot": "69",
        "sbi": "18",
        "sarea": "新店區",
        "mday": "20250920022503",
        "lat": "24.97878",
        "lng": "121.53339",
        "ar": "中央路3號對面(西側)",
        "sareaen": "Xindian Dist",
        "snaen": "YouBike2.0_Yangbei 3rd & Zhongyang Rd. Intersection",
        "aren": "No. 3, Zhongyang Rd.(West)",
        "bemp": "51",
        "act": "1"
    },
    {
        "sno": "500227061",
        "sna": "YouBike2.0_直潭淨水廠(直潭二街)",
        "tot": "15",
        "sbi": "11",
        "sarea": "新店區",
        "mday": "20250917061103",
        "lat": "24.9431",
        "lng": "121.53536",
        "ar": "直潭路與直潭二街口",
        "sareaen": "Xindian Dist",
        "snaen": "YouBike2.0_Zhitan Purification Plant(Zhitan 2nd St.)",
        "aren": "Zhitan Rd. & Zhitan 2nd St. Intersection",
        "bemp": "4",
        "act": "1"
    },
    {
        "sno": "500227062",
        "sna": "YouBike2.0_直潭活動中心",
        "tot": "15",
        "sbi": "5",
        "sarea": "新店區",
        "mday": "20250919214803",
        "lat": "24.93893",
        "lng": "121.53329",
        "ar": "直潭十街與直潭九街口",
        "sareaen": "Xindian Dist",
        "snaen": "YouBike2.0_Zhitan Community Center",
        "aren": "Zhitan 10th St. & Zhitan 9th St. Intersection",
        "bemp": "10",
        "act": "1"
    },
    {
        "sno": "500227063",
        "sna": "YouBike2.0_永平街23巷",
        "tot": "18",
        "sbi": "13",
        "sarea": "新店區",
        "mday": "20250919232902",
        "lat": "24.98316",
        "lng": "121.51604",
        "ar": "永平街23巷11號(旁)",
        "sareaen": "Xindian Dist",
        "snaen": "YouBike2.0_Ln. 23, Yongping St.",
        "aren": "No. 11, Ln. 23, Yongping St.",
        "bemp": "4",
        "act": "1"
    },
    {
        "sno": "500227064",
        "sna": "YouBike2.0_十四張歷史公園(南側)",
        "tot": "20",
        "sbi": "15",
        "sarea": "新店區",
        "mday": "20250920030803",
        "lat": "24.97900",
        "lng": "121.52844",
        "ar": "啟文央北二路口北側",
        "sareaen": "Xindian Dist",
        "snaen": "YouBike2.0_Shisizhang Park(South)",
        "aren": "Qiwen Yangbei 2nd Rd. Intersection(North)",
        "bemp": "5",
        "act": "1"
    },
    {
        "sno": "500227065",
        "sna": "YouBike2.0_大豐公園停車場",
        "tot": "15",
        "sbi": "11",
        "sarea": "新店區",
        "mday": "20250920022702",
        "lat": "24.97875",
        "lng": "121.53587",
        "ar": "二十張路129巷2弄2號(南側)",
        "sareaen": "Xindian Dist",
        "snaen": "YouBike2.0_Dafeng Park Parking",
        "aren": "No. 2, Aly. 2, Ln. 129, Ershizhang Rd.(South)",
        "bemp": "4",
        "act": "1"
    },
    {
        "sno": "500227067",
        "sna": "YouBike2.0_寶強文化路口",
        "tot": "11",
        "sbi": "0",
        "sarea": "新店區",
        "mday": "20250920015614",
        "lat": "24.97914",
        "lng": "121.54351",
        "ar": "寶強路23號(前)",
        "sareaen": "Xindian Dist",
        "snaen": "YouBike2.0_Baoqiang Wenhua Rd. Intersection",
        "aren": "No. 23, Baoqiang Rd.",
        "bemp": "11",
        "act": "1"
    },
    {
        "sno": "500227068",
        "sna": "YouBike2.0_北新路二段228巷口",
        "tot": "12",
        "sbi": "1",
        "sarea": "新店區",
        "mday": "20250920020802",
        "lat": "24.97775",
        "lng": "121.54284",
        "ar": "北新路二段228巷1號",
        "sareaen": "Xindian Dist",
        "snaen": "YouBike2.0_Ln. 228, Sec. 2, Beixin Rd. Intersection",
        "aren": "No. 1, Ln. 228, Sec. 2, Beixin Rd.",
        "bemp": "11",
        "act": "1"
    },
    {
        "sno": "500227070",
        "sna": "YouBike2.0_寶中路97巷口",
        "tot": "13",
        "sbi": "7",
        "sarea": "新店區",
        "mday": "20250920033503",
        "lat": "24.98047",
        "lng": "121.54878",
        "ar": "寶中路95號(前)",
        "sareaen": "Xindian Dist",
        "snaen": "YouBike2.0_Ln. 97, Baozhong Rd. Intersection",
        "aren": "No. 95, Baozhong Rd.",
        "bemp": "6",
        "act": "1"
    },
    {
        "sno": "500227071",
        "sna": "YouBike2.0_寶中寶橋路口",
        "tot": "17",
        "sbi": "5",
        "sarea": "新店區",
        "mday": "20250920001503",
        "lat": "24.97862",
        "lng": "121.55028",
        "ar": "寶中路136號(對面)",
        "sareaen": "Xindian Dist",
        "snaen": "YouBike2.0_Baozhong Baoqiao Rd. Intersection",
        "aren": "No. 136, Baozhong Rd.",
        "bemp": "12",
        "act": "1"
    },
    {
        "sno": "500227072",
        "sna": "YouBike2.0_寶橋路235巷",
        "tot": "27",
        "sbi": "3",
        "sarea": "新店區",
        "mday": "20250920001117",
        "lat": "24.98278",
        "lng": "121.55102",
        "ar": "寶橋路235巷18號(旁)",
        "sareaen": "Xindian Dist",
        "snaen": "YouBike2.0_Ln. 235, Baoqiao Rd. Intersection",
        "aren": "No. 18, Ln. 235, Baoqiao Rd.",
        "bemp": "24",
        "act": "1"
    },
    {
        "sno": "500227073",
        "sna": "YouBike2.0_寶橋路29巷",
        "tot": "10",
        "sbi": "2",
        "sarea": "新店區",
        "mday": "20250920011415",
        "lat": "24.97492",
        "lng": "121.54389",
        "ar": "寶橋路29巷18號南側",
        "sareaen": "Xindian Dist",
        "snaen": "YouBike2.0_Ln. 29, Baoqiao Rd. Intersection",
        "aren": "No. 18, Ln. 29, Baoqiao Rd.(South)",
        "bemp": "8",
        "act": "1"
    },
    {
        "sno": "500227074",
        "sna": "YouBike2.0_中興檳榔路口",
        "tot": "13",
        "sbi": "12",
        "sarea": "新店區",
        "mday": "20250920024403",
        "lat": "24.96337",
        "lng": "121.54185",
        "ar": "中興路一段/檳榔路(西南側)",
        "sareaen": "Xindian Dist",
        "snaen": "YouBike2.0_Zhongxing Binlang Rd. Intersection",
        "aren": "Sec. 1, Zhongxing Rd. & Binlang Rd.(Southwest)",
        "bemp": "1",
        "act": "1"
    },
    {
        "sno": "500227075",
        "sna": "YouBike2.0_北新新生街口",
        "tot": "12",
        "sbi": "4",
        "sarea": "新店區",
        "mday": "20250920034002",
        "lat": "24.96561",
        "lng": "121.54061",
        "ar": "北新路一段235號(旁)",
        "sareaen": "Xindian Dist",
        "snaen": "YouBike2.0_Beixin Xinsheng St. Intersection",
        "aren": "No. 235, Sec. 1, Beixin Rd.",
        "bemp": "8",
        "act": "1"
    },
    {
        "sno": "500227076",
        "sna": "YouBike2.0_中興文化路口(東南側)",
        "tot": "19",
        "sbi": "4",
        "sarea": "新店區",
        "mday": "20250920011102",
        "lat": "24.98037",
        "lng": "121.5445",
        "ar": "中興路三段138號(前)",
        "sareaen": "Xindian Dist",
        "snaen": "YouBike2.0_Zhongxing Wenhua Rd. Intersection(Southeast)",
        "aren": "No. 138, Sec. 3, Zhongxing Rd.",
        "bemp": "15",
        "act": "1"
    },
    {
        "sno": "500227077",
        "sna": "YouBike2.0_雙城國小",
        "tot": "15",
        "sbi": "0",
        "sarea": "新店區",
        "mday": "20250920015316",
        "lat": "24.95186",
        "lng": "121.48628",
        "ar": "安康路三段322號",
        "sareaen": "Xindian Dist",
        "snaen": "YouBike2.0_Shuangcheng Elementary School",
        "aren": "No. 322, Sec. 3, Ankang Rd.",
        "bemp": "13",
        "act": "1"
    },
    {
        "sno": "500227078",
        "sna": "YouBike2.0_北城生活廣場(富貴街)",
        "tot": "11",
        "sbi": "7",
        "sarea": "新店區",
        "mday": "20250919233102",
        "lat": "24.94888",
        "lng": "121.49409",
        "ar": "富貴街11巷2號",
        "sareaen": "Xindian Dist",
        "snaen": "YouBike2.0_Beicheng Square(Fugui St.)",
        "aren": "No. 2, Ln. 11, Fugui St.",
        "bemp": "4",
        "act": "1"
    },
    {
        "sno": "500227079",
        "sna": "YouBike2.0_中華郵政玫瑰城郵局",
        "tot": "16",
        "sbi": "14",
        "sarea": "新店區",
        "mday": "20250919113603",
        "lat": "24.94702",
        "lng": "121.49674",
        "ar": "如意街112號北側",
        "sareaen": "Xindian Dist",
        "snaen": "YouBike2.0_No. 112, Ruyi St.(North)",
        "aren": "No. 112, Ruyi St.(North)",
        "bemp": "2",
        "act": "1"
    },
    {
        "sno": "500227080",
        "sna": "YouBike2.0_安民街35巷口",
        "tot": "13",
        "sbi": "6",
        "sarea": "新店區",
        "mday": "20250920012004",
        "lat": "24.96484",
        "lng": "121.51564",
        "ar": "安民街21號東側",
        "sareaen": "Xindian Dist",
        "snaen": "YouBike2.0_No. 21, Anmin St.(East)",
        "aren": "No. 21, Anmin St.(East)",
        "bemp": "7",
        "act": "1"
    },
    {
        "sno": "500227081",
        "sna": "YouBike2.0_廣興河濱公園",
        "tot": "16",
        "sbi": "0",
        "sarea": "新店區",
        "mday": "20250919180217",
        "lat": "24.91255",
        "lng": "121.53739",
        "ar": "廣興路101號西側",
        "sareaen": "Xindian Dist",
        "snaen": "YouBike2.0_Guangxing Park",
        "aren": "No. 101, Guangxing Rd.(West)",
        "bemp": "0",
        "act": "1"
    },
    {
        "sno": "500227082",
        "sna": "YouBike2.0_中華郵政五城郵局",
        "tot": "15",
        "sbi": "2",
        "sarea": "新店區",
        "mday": "20250920003702",
        "lat": "24.94483",
        "lng": "121.47917",
        "ar": "錦秀路5號西側",
        "sareaen": "Xindian Dist",
        "snaen": "YouBike2.0_No. 5, Jinxiu Rd., Xindian Dist.(west side)",
        "aren": "No. 5, Jinxiu Rd., Xindian Dist.(west side)",
        "bemp": "13",
        "act": "1"
    },
    {
        "sno": "500227083",
        "sna": "YouBike2.0_屈尺景觀公園",
        "tot": "16",
        "sbi": "6",
        "sarea": "新店區",
        "mday": "20250912111303",
        "lat": "24.91988",
        "lng": "121.54668",
        "ar": "自強路199號西側",
        "sareaen": "Xindian Dist",
        "snaen": "YouBike2.0_Quchi Landscape Park",
        "aren": "Quchi Landscape Park",
        "bemp": "10",
        "act": "1"
    },
    {
        "sno": "500227084",
        "sna": "YouBike2.0_龜山活動中心",
        "tot": "8",
        "sbi": "2",
        "sarea": "新店區",
        "mday": "20250919004802",
        "lat": "24.90303",
        "lng": "121.55224",
        "ar": "新烏路三段136號",
        "sareaen": "Xindian Dist",
        "snaen": "YouBike2.0_Guishan Civic Activity Center",
        "aren": "No. 136. Sec. 3, Xinwu Rd.",
        "bemp": "6",
        "act": "1"
    },
    {
        "sno": "500227085",
        "sna": "YouBike2.0_雙城公園(安康路)",
        "tot": "13",
        "sbi": "11",
        "sarea": "新店區",
        "mday": "20250919112215",
        "lat": "24.95176",
        "lng": "121.49035",
        "ar": "安康路三段150號",
        "sareaen": "Xindian Dist",
        "snaen": "YouBike2.0_Shuangcheng Park(Ankang Rd.)",
        "aren": "No. 150, Sec. 3, Ankang Rd.",
        "bemp": "2",
        "act": "1"
    },
    {
        "sno": "500227086",
        "sna": "YouBike2.0_輕軌雙城站",
        "tot": "21",
        "sbi": "12",
        "sarea": "新店區",
        "mday": "20250918231702",
        "lat": "24.94679",
        "lng": "121.48985",
        "ar": "和成街12巷9號南側(安一路)",
        "sareaen": "Xindian Dist",
        "snaen": "YouBike2.0_No. 9, Ln. 12, Hecheng St.(South)(An 1st Rd.)",
        "aren": "No. 9, Ln. 12, Hecheng St.(South)(An 1st Rd.)",
        "bemp": "9",
        "act": "1"
    },
    {
        "sno": "500227087",
        "sna": "YouBike2.0_安華公園",
        "tot": "22",
        "sbi": "12",
        "sarea": "新店區",
        "mday": "20250920012604",
        "lat": "24.97374",
        "lng": "121.53538",
        "ar": "平等街329巷7弄/平等街48巷(西北側)",
        "sareaen": "Xindian Dist",
        "snaen": "YouBike2.0_Aly. 7, Ln. 329, Pingdeng St. & Ln. 48, Pingdeng St.(Northwest)",
        "aren": "Aly. 7, Ln. 329, Pingdeng St. & Ln. 48, Pingdeng St.(Northwest)",
        "bemp": "7",
        "act": "1"
    },
    {
        "sno": "500227088",
        "sna": "YouBike2.0_輕軌玫瑰中國城站",
        "tot": "30",
        "sbi": "22",
        "sarea": "新店區",
        "mday": "20250920011602",
        "lat": "24.95101",
        "lng": "121.49418",
        "ar": "玫瑰路4-2號",
        "sareaen": "Xindian Dist",
        "snaen": "YouBike2.0_LRT Xinhe Elementary School Sta.",
        "aren": "No. 4-2, Meigui Rd.",
        "bemp": "8",
        "act": "1"
    },
    {
        "sno": "500227089",
        "sna": "YouBike2.0_輕軌台北小城站(南側)",
        "tot": "15",
        "sbi": "4",
        "sarea": "新店區",
        "mday": "20250920023103",
        "lat": "24.95312",
        "lng": "121.49816",
        "ar": "安豐路66號西南側",
        "sareaen": "Xindian Dist",
        "snaen": "YouBike2.0_LRT Taipei Xiaocheng (South) Sta.",
        "aren": "No. 66, Anfeng Rd.(Southwest)",
        "bemp": "11",
        "act": "1"
    },
    {
        "sno": "500227090",
        "sna": "YouBike2.0_輕軌耕莘安康院區站",
        "tot": "29",
        "sbi": "7",
        "sarea": "新店區",
        "mday": "20250920031602",
        "lat": "24.95453",
        "lng": "121.50368",
        "ar": "安一路二段200-1號",
        "sareaen": "Xindian Dist",
        "snaen": "YouBike2.0_LRT Cardinal Tien Hospital Ankang Branch Sta.",
        "aren": "No. 200-1, Sec. 2, An 1st Rd.",
        "bemp": "21",
        "act": "1"
    },
    {
        "sno": "500227091",
        "sna": "YouBike2.0_輕軌景文科大站",
        "tot": "27",
        "sbi": "4",
        "sarea": "新店區",
        "mday": "20250919203004",
        "lat": "24.95474",
        "lng": "121.50964",
        "ar": "安忠路101號",
        "sareaen": "Xindian Dist",
        "snaen": "YouBike2.0_LRT Jingwen University of Science and Technology Sta.",
        "aren": "No. 101, Anzhong Rd.",
        "bemp": "22",
        "act": "1"
    },
    {
        "sno": "500227092",
        "sna": "YouBike2.0_輕軌安康站",
        "tot": "21",
        "sbi": "11",
        "sarea": "新店區",
        "mday": "20250920000402",
        "lat": "24.96525",
        "lng": "121.51717",
        "ar": "安和路一段25號",
        "sareaen": "Xindian Dist",
        "snaen": "YouBike2.0_LRT Ankang Sta.",
        "aren": "No. 25, Sec. 1, An'he Rd.",
        "bemp": "10",
        "act": "1"
    },
    {
        "sno": "500227093",
        "sna": "YouBike2.0_輕軌陽光運動公園站",
        "tot": "20",
        "sbi": "7",
        "sarea": "新店區",
        "mday": "20250920000901",
        "lat": "24.97193",
        "lng": "121.51928",
        "ar": "安和路二段121號",
        "sareaen": "Xindian Dist",
        "snaen": "YouBike2.0_LRT Sunshine Sports Park Sta.",
        "aren": "No. 121, Sec. 2, Anhe Rd.",
        "bemp": "13",
        "act": "1"
    },
    {
        "sno": "500227094",
        "sna": "YouBike2.0_輕軌新和國小站",
        "tot": "23",
        "sbi": "5",
        "sarea": "新店區",
        "mday": "20250920024802",
        "lat": "24.98338",
        "lng": "121.51830",
        "ar": "安和路三段76號",
        "sareaen": "Xindian Dist",
        "snaen": "YouBike2.0_LRT Xinhe Elementary School Sta.",
        "aren": "No. 76, Sec. 3, Anhe Rd.",
        "bemp": "18",
        "act": "1"
    },
    {
        "sno": "500227095",
        "sna": "YouBike2.0_輕軌台北小城站(北側)",
        "tot": "14",
        "sbi": "4",
        "sarea": "新店區",
        "mday": "20250919153902",
        "lat": "24.95351",
        "lng": "121.49833",
        "ar": "安豐路66號西北側",
        "sareaen": "Xindian Dist",
        "snaen": "YouBike2.0_LRT Taipei Xiaocheng (Nouth) Sta.",
        "aren": "No. 66, Anfeng Rd.(Northwest)",
        "bemp": "10",
        "act": "1"
    },
    {
        "sno": "500227096",
        "sna": "YouBike2.0_安民街停車場",
        "tot": "16",
        "sbi": "11",
        "sarea": "新店區",
        "mday": "20250920022902",
        "lat": "24.97077",
        "lng": "121.51686",
        "ar": "安民街172號西側",
        "sareaen": "Xindian Dist",
        "snaen": "YouBike2.0_Anmin Street Parking Lot",
        "aren": "No. 172, Anmin St.(West)",
        "bemp": "5",
        "act": "1"
    },
    {
        "sno": "500227097",
        "sna": "YouBike2.0_三民地下停車場",
        "tot": "10",
        "sbi": "7",
        "sarea": "新店區",
        "mday": "20250920030103",
        "lat": "24.97097",
        "lng": "121.53718",
        "ar": "三民路20-1號",
        "sareaen": "Xindian Dist",
        "snaen": "YouBike2.0_San in Parking Lot",
        "aren": "No. 20-1, Sanmin Rd.",
        "bemp": "3",
        "act": "1"
    },
    {
        "sno": "500227098",
        "sna": "YouBike2.0_吉安停車場",
        "tot": "14",
        "sbi": "6",
        "sarea": "新店區",
        "mday": "20250920001302",
        "lat": "24.96623",
        "lng": "121.51635",
        "ar": "安民街68號(旁)",
        "sareaen": "Xindian Dist",
        "snaen": "YouBike2.0_Ji An Parking Lot",
        "aren": "No. 68, Anmin St.",
        "bemp": "8",
        "act": "1"
    },
    {
        "sno": "500227099",
        "sna": "YouBike2.0_央北新村平面停車場",
        "tot": "49",
        "sbi": "35",
        "sarea": "新店區",
        "mday": "20250920025403",
        "lat": "24.97752",
        "lng": "121.52737",
        "ar": "央北一路/啟文路(東側)",
        "sareaen": "Xindian Dist",
        "snaen": "YouBike2.0_Yangbei New Village Parking Lot",
        "aren": "Yangbei 1st Rd. & Qiwen Rd.(East)",
        "bemp": "8",
        "act": "1"
    },
    {
        "sno": "500227100",
        "sna": "YouBike2.0_安德停車場",
        "tot": "12",
        "sbi": "6",
        "sarea": "新店區",
        "mday": "20250920000102",
        "lat": "24.96039",
        "lng": "121.50882",
        "ar": "安德街/安德街130巷(東側)",
        "sareaen": "Xindian Dist",
        "snaen": "YouBike2.0_An De Parking Lot",
        "aren": "Ande St. & Ln. 130, Ande St.(East)",
        "bemp": "5",
        "act": "1"
    },
    {
        "sno": "500227103",
        "sna": "YouBike2.0_安興祥和路口",
        "tot": "15",
        "sbi": "13",
        "sarea": "新店區",
        "mday": "20250919235005",
        "lat": "24.97666",
        "lng": "121.51546",
        "ar": "安興路/祥和路(東南側)",
        "sareaen": "Xindian Dist",
        "snaen": "YouBike2.0_Anxing & Xianghe Intersection",
        "aren": "Anxing Rd. & Xianghe Rd. Intersection(Southeast)",
        "bemp": "2",
        "act": "1"
    },
    {
        "sno": "500227104",
        "sna": "YouBike2.0_綠湖公園地下停車場",
        "tot": "27",
        "sbi": "4",
        "sarea": "新店區",
        "mday": "20250920021802",
        "lat": "24.97956",
        "lng": "121.54613",
        "ar": "寶中路/品牌路口(東南側)",
        "sareaen": "Xindian Dist",
        "snaen": "YouBike2.0_Liuhu Park Underground Parking Lot",
        "aren": "Baozhong Rd. /Pinpai Rd. (Southeast)",
        "bemp": "23",
        "act": "1"
    },
    {
        "sno": "500227105",
        "sna": "YouBike2.0_中山路31巷(波爾多2社區)",
        "tot": "40",
        "sbi": "19",
        "sarea": "新店區",
        "mday": "20250920025005",
        "lat": "24.98030",
        "lng": "121.52478",
        "ar": "中山路31巷/中山路(北側)",
        "sareaen": "Xindian Dist",
        "snaen": "YouBike2.0_Ln. 31, Zhongshan Rd.",
        "aren": "Ln. 31, Zhongshan Rd./Zhongshan Rd. (North)",
        "bemp": "6",
        "act": "1"
    },
    {
        "sno": "500227106",
        "sna": "YouBike2.0_中正路399巷口",
        "tot": "22",
        "sbi": "10",
        "sarea": "新店區",
        "mday": "20250920014202",
        "lat": "24.97710",
        "lng": "121.53455",
        "ar": "中正路389號(前)",
        "sareaen": "Xindian Dist",
        "snaen": "YouBike2.0_Ln.399, Zhongzheng Rd.",
        "aren": "No.389, Zhongzheng Rd. (front)",
        "bemp": "12",
        "act": "1"
    },
    {
        "sno": "500227107",
        "sna": "YouBike2.0_永平休閒廣場",
        "tot": "15",
        "sbi": "11",
        "sarea": "新店區",
        "mday": "20250920021702",
        "lat": "24.98432",
        "lng": "121.51610",
        "ar": "永平街53巷2號(前)",
        "sareaen": "Xindian Dist",
        "snaen": "YouBike2.0_Yongpin Leisure Square",
        "aren": "No. 2, Ln. 53, Yongping St. (Front)",
        "bemp": "2",
        "act": "1"
    },
    {
        "sno": "500227108",
        "sna": "YouBike2.0_安和碧安街口",
        "tot": "20",
        "sbi": "6",
        "sarea": "新店區",
        "mday": "20250919160203",
        "lat": "24.96696",
        "lng": "121.51776",
        "ar": "安和路一段/碧安街口(東側)",
        "sareaen": "Xindian Dist",
        "snaen": "YouBike2.0_Anhe Rd. & Bi'an St. Intersection",
        "aren": "Sec.1, Anhe Rd.& Bi'an St. (East)",
        "bemp": "14",
        "act": "1"
    },
    {
        "sno": "500227109",
        "sna": "YouBike2.0_胡璉故居紀念館",
        "tot": "10",
        "sbi": "8",
        "sarea": "新店區",
        "mday": "20250920011202",
        "lat": "24.96171",
        "lng": "121.52763",
        "ar": "莒光路12號(前)",
        "sareaen": "Xindian Dist",
        "snaen": "YouBike2.0_Hu Lien Former Residence Memorial",
        "aren": "No. 12, Juguang Rd. (Front)",
        "bemp": "2",
        "act": "1"
    },
    {
        "sno": "500227110",
        "sna": "YouBike2.0_十四張啓文路口",
        "tot": "15",
        "sbi": "11",
        "sarea": "新店區",
        "mday": "20250919232502",
        "lat": "24.98055",
        "lng": "121.52978",
        "ar": "十四張路/啓文路口(西南側)",
        "sareaen": "Xindian Dist",
        "snaen": "YouBike2.0_Shisizhang Rd. & Qiwen Rd. Intersection",
        "aren": "Shisizhang Rd. & Qiwen Rd. (Southwest)",
        "bemp": "4",
        "act": "1"
    },
    {
        "sno": "500227111",
        "sna": "YouBike2.0_啟文央北二路口(中央公園社區)",
        "tot": "40",
        "sbi": "34",
        "sarea": "新店區",
        "mday": "20250920022102",
        "lat": "24.97976",
        "lng": "121.52935",
        "ar": "啟文路/央北二路(東北側)",
        "sareaen": "Xindian Dist",
        "snaen": "YouBike2.0_Qiwen Rd. & Yangbei 2nd Rd. Intersection",
        "aren": "Qiwen Rd. & Yangbei 2nd Rd. (Northeast)",
        "bemp": "6",
        "act": "1"
    },
    {
        "sno": "500227112",
        "sna": "YouBike2.0_安和路二段117巷口",
        "tot": "17",
        "sbi": "4",
        "sarea": "新店區",
        "mday": "20250920033101",
        "lat": "24.97029",
        "lng": "121.51883",
        "ar": "安和路二段115號(前)",
        "sareaen": "Xindian Dist",
        "snaen": "YouBike2.0_Ln. 117, Sec. 2, Anhe Rd. Intersection",
        "aren": "No. 115, Sec. 2, Anhe Rd. (Front)",
        "bemp": "13",
        "act": "1"
    },
    {
        "sno": "500227113",
        "sna": "YouBike2.0_新北捷運環狀線南機廠",
        "tot": "21",
        "sbi": "2",
        "sarea": "新店區",
        "mday": "20250920010717",
        "lat": "24.98343",
        "lng": "121.52891",
        "ar": "民權路280號(旁)",
        "sareaen": "Xindian Dist",
        "snaen": "YouBike2.0_NTM Circular Line South Depot",
        "aren": "No. 280, Minquan Rd. (Side)",
        "bemp": "19",
        "act": "1"
    },
    {
        "sno": "500227114",
        "sna": "YouBike2.0_明德路65巷口",
        "tot": "15",
        "sbi": "13",
        "sarea": "新店區",
        "mday": "20250920021301",
        "lat": "24.97670",
        "lng": "121.54145",
        "ar": "明德路65巷口",
        "sareaen": "Xindian Dist",
        "snaen": "YouBike2.0_Ln. 65, Mingde Rd. Intersection",
        "aren": "Ln. 65, Mingde Rd. Intersection",
        "bemp": "2",
        "act": "1"
    },
    {
        "sno": "500227115",
        "sna": "YouBike2.0_中央新村(中央三街)",
        "tot": "23",
        "sbi": "17",
        "sarea": "新店區",
        "mday": "20250920010203",
        "lat": "24.97640",
        "lng": "121.52488",
        "ar": "中央三路111號(對面)",
        "sareaen": "Xindian Dist",
        "snaen": "YouBike2.0_Zhongyang New Village",
        "aren": "No. 111, Zhongyang 3rd St. (Opposite)",
        "bemp": "6",
        "act": "1"
    },
    {
        "sno": "500227116",
        "sna": "YouBike2.0_新安永安街口",
        "tot": "20",
        "sbi": "15",
        "sarea": "新店區",
        "mday": "20250920000004",
        "lat": "24.98542",
        "lng": "121.52138",
        "ar": "永安街109巷2號(後方)",
        "sareaen": "Xindian Dist",
        "snaen": "YouBike2.0_Yong'an St. (LRT Viaduct)",
        "aren": "No. 2, Ln. 109, Yong'an St. (Behind)",
        "bemp": "5",
        "act": "1"
    },
    {
        "sno": "500227117",
        "sna": "YouBike2.0_新安永安街94巷口",
        "tot": "20",
        "sbi": "11",
        "sarea": "新店區",
        "mday": "20250919234403",
        "lat": "24.98446",
        "lng": "121.52034",
        "ar": "永安街94巷22號(西南側約百米)",
        "sareaen": "Xindian Dist",
        "snaen": "YouBike2.0_Ln. 94, Yong'an St. (LRT Viaduct)",
        "aren": "No. 22, Ln. 94, Yong'an St. (Southwest)",
        "bemp": "9",
        "act": "1"
    },
    {
        "sno": "500227118",
        "sna": "YouBike2.0_新和街32巷口",
        "tot": "17",
        "sbi": "9",
        "sarea": "新店區",
        "mday": "20250920024304",
        "lat": "24.98470",
        "lng": "121.51920",
        "ar": "新和街32巷1號之1(對側)",
        "sareaen": "Xindian Dist",
        "snaen": "YouBike2.0_Ln. 32, Xinhe St. Intersection",
        "aren": "No. 1-1, Ln. 32, Xinhe St. (Opposite)",
        "bemp": "6",
        "act": "1"
    },
    {
        "sno": "500227119",
        "sna": "YouBike2.0_中央陸橋(中央一街)",
        "tot": "16",
        "sbi": "9",
        "sarea": "新店區",
        "mday": "20250920020003",
        "lat": "24.97371",
        "lng": "121.52736",
        "ar": "中央一街41號(對側)",
        "sareaen": "Xindian Dist",
        "snaen": "YouBike2.0_Zhongyang Footbridge (Zhongyang 1st St.)",
        "aren": "No. 41, Zhongyang 1st St. (Opposite)",
        "bemp": "7",
        "act": "1"
    },
    {
        "sno": "500227120",
        "sna": "YouBike2.0_大豐里(建國路)",
        "tot": "13",
        "sbi": "7",
        "sarea": "新店區",
        "mday": "20250920024403",
        "lat": "24.97991",
        "lng": "121.53799",
        "ar": "建國路178號(前)",
        "sareaen": "Xindian Dist",
        "snaen": "YouBike2.0_Dafeng Vil (Jianguo Rd.)",
        "aren": "No. 178, Jianguo Rd. (Front)",
        "bemp": "6",
        "act": "1"
    },
    {
        "sno": "500227121",
        "sna": "YouBike2.0_寶高路120巷口",
        "tot": "14",
        "sbi": "11",
        "sarea": "新店區",
        "mday": "20250920012502",
        "lat": "24.97622",
        "lng": "121.55433",
        "ar": "寶高路108-118號(旁)",
        "sareaen": "Xindian Dist",
        "snaen": "YouBike2.0_Ln. 120, Baogao Rd. Intersection",
        "aren": "No. 108-118, Baogao Rd. (Side)",
        "bemp": "3",
        "act": "1"
    },
    {
        "sno": "500227122",
        "sna": "YouBike2.0_民權二十張路口",
        "tot": "14",
        "sbi": "3",
        "sarea": "新店區",
        "mday": "20250920020904",
        "lat": "24.98291",
        "lng": "121.53966",
        "ar": "民權路51號(前)",
        "sareaen": "Xindian Dist",
        "snaen": "YouBike2.0_MinQuan Rd. & ErShiZhang Rd. Intersection",
        "aren": "No. 51, MinQuan Rd. (Front)",
        "bemp": "11",
        "act": "1"
    },
    {
        "sno": "500227123",
        "sna": "YouBike2.0_碧潭大橋(溪洲路6巷)",
        "tot": "18",
        "sbi": "7",
        "sarea": "新店區",
        "mday": "20250920024003",
        "lat": "24.96061",
        "lng": "121.53426",
        "ar": "安康路一段臨3-1號(西側)",
        "sareaen": "Xindian Dist",
        "snaen": "YouBike2.0_BiTan Bridge (Ln. 6, XiZhou Rd.)",
        "aren": "No. 3-1, Sec. 1, AnKang Rd. (West)",
        "bemp": "11",
        "act": "1"
    },
    {
        "sno": "500227124",
        "sna": "YouBike2.0_福民市民活動中心",
        "tot": "15",
        "sbi": "10",
        "sarea": "新店區",
        "mday": "20250920002615",
        "lat": "24.97293",
        "lng": "121.53305",
        "ar": "福園街8號之1",
        "sareaen": "Xindian Dist",
        "snaen": "YouBike2.0_FuMin Civil Activity Center",
        "aren": "No. 8-1, FuYuan St.",
        "bemp": "4",
        "act": "1"
    },
    {
        "sno": "500227125",
        "sna": "YouBike2.0_十四張歷史公園(北側)",
        "tot": "20",
        "sbi": "12",
        "sarea": "新店區",
        "mday": "20250920010403",
        "lat": "24.97980",
        "lng": "121.52689",
        "ar": "央北二路/央北二路206巷(東側)",
        "sareaen": "Xindian Dist",
        "snaen": "YouBike2.0_Shisizhang History Park (North)",
        "aren": "Ln. 206, YangBei 2nd Rd. Intersection (East)",
        "bemp": "8",
        "act": "1"
    },
    {
        "sno": "500227126",
        "sna": "YouBike2.0_溪洲原住民族生活文化園區Cinemnemay",
        "tot": "21",
        "sbi": "13",
        "sarea": "新店區",
        "mday": "20250920034002",
        "lat": "24.96826",
        "lng": "121.52834",
        "ar": "溪洲路226號",
        "sareaen": "Xindian Dist",
        "snaen": "YouBike2.0_Xizhou Aboriginal Cultural Park",
        "aren": "No. 226, XiZhou Rd.",
        "bemp": "8",
        "act": "1"
    },
    {
        "sno": "500227127",
        "sna": "YouBike2.0_十四張歷史建築園區(文記街)",
        "tot": "30",
        "sbi": "15",
        "sarea": "新店區",
        "mday": "20250920004602",
        "lat": "24.98065",
        "lng": "121.52792",
        "ar": "文記街/央北二路206巷口",
        "sareaen": "Xindian Dist",
        "snaen": "YouBike2.0_Shisizhang History Park (WenJi St.)",
        "aren": "WenJi St. & Ln. 206, YangBei 2nd Rd.",
        "bemp": "15",
        "act": "1"
    },
    {
        "sno": "500227128",
        "sna": "YouBike2.0_中正路144巷口",
        "tot": "15",
        "sbi": "6",
        "sarea": "新店區",
        "mday": "20250920000602",
        "lat": "24.97148",
        "lng": "121.54190",
        "ar": "中正路140號(前)",
        "sareaen": "Xindian Dist",
        "snaen": "YouBike2.0_Ln. 144, ZhongZheng Rd. Intersection",
        "aren": "No. 140, ZhongZheng Rd. (Front)",
        "bemp": "9",
        "act": "1"
    },
    {
        "sno": "500229001",
        "sna": "YouBike2.0_捷運幸福站",
        "tot": "58",
        "sbi": "8",
        "sarea": "新莊區",
        "mday": "20250920005302",
        "lat": "25.04988",
        "lng": "121.46018",
        "ar": "思源路292號(捷運1號出口前)",
        "sareaen": "Xinzhuang Dist",
        "snaen": "YouBike2.0_MRT Xingfu Station",
        "aren": "No. 292, Siyuan Rd., Xinzhuang Dist.",
        "bemp": "50",
        "act": "1"
    },
    {
        "sno": "500229002",
        "sna": "YouBike2.0_新莊棒球場",
        "tot": "69",
        "sbi": "21",
        "sarea": "新莊區",
        "mday": "20250920030803",
        "lat": "25.04138",
        "lng": "121.44609",
        "ar": "和興街71號(對面)",
        "sareaen": "Xinzhuang Dist",
        "snaen": "YouBike2.0_Xinzhuang Baseball Court",
        "aren": "No.40, Gongyuan Rd., Xinzhuang Dist.(opposite)",
        "bemp": "48",
        "act": "1"
    },
    {
        "sno": "500229003",
        "sna": "YouBike2.0_新莊國民運動中心",
        "tot": "46",
        "sbi": "8",
        "sarea": "新莊區",
        "mday": "20250920011502",
        "lat": "25.03932",
        "lng": "121.44898",
        "ar": "公園路40號(對面)",
        "sareaen": "Xinzhuang Dist",
        "snaen": "YouBike2.0_Xinzhuang Civil Sports Center",
        "aren": "No.40, Gongyuan Rd., Xinzhuang Dist.(opposite)",
        "bemp": "38",
        "act": "1"
    },
    {
        "sno": "500229004",
        "sna": "YouBike2.0_新莊體育館",
        "tot": "47",
        "sbi": "9",
        "sarea": "新莊區",
        "mday": "20250920015204",
        "lat": "25.04078",
        "lng": "121.45255",
        "ar": "中華路一段118號(對面)",
        "sareaen": "Xinzhuang Dist",
        "snaen": "YouBike2.0_Xinzhuang Gymnasium",
        "aren": "No. 118, Sec. 1, Zhonghua Rd.(oppsite)",
        "bemp": "38",
        "act": "1"
    },
    {
        "sno": "500229005",
        "sna": "YouBike2.0_中華里(中華路二段)",
        "tot": "48",
        "sbi": "17",
        "sarea": "新莊區",
        "mday": "20250920025403",
        "lat": "25.04619",
        "lng": "121.45367",
        "ar": "中華路二段/中華路二段45巷口(東北側)",
        "sareaen": "Xinzhuang Dist",
        "snaen": "YouBike2.0_Zhonghua Village (Zhonghua Rd. Sec. 2 )",
        "aren": "Sec. 2, Zhonghua Rd. & Ln. 45, Sec. 2, Zhonghua Rd. Intersection(Northeast)",
        "bemp": "29",
        "act": "1"
    },
    {
        "sno": "500229006",
        "sna": "YouBike2.0_中華自治街口",
        "tot": "46",
        "sbi": "39",
        "sarea": "新莊區",
        "mday": "20250920031203",
        "lat": "25.04775",
        "lng": "121.45330",
        "ar": "中華路一段118號(對面)",
        "sareaen": "Xinzhuang Dist",
        "snaen": "YouBike2.0_Xinzhuang Gymnasium",
        "aren": "No. 118, Sec. 1, Zhonghua Rd.(oppsite)",
        "bemp": "7",
        "act": "1"
    },
    {
        "sno": "500229007",
        "sna": "YouBike2.0_中港國小",
        "tot": "58",
        "sbi": "46",
        "sarea": "新莊區",
        "mday": "20250920021902",
        "lat": "25.04563",
        "lng": "121.44783",
        "ar": "中和街/中港一街口(西北側)",
        "sareaen": "Xinzhuang Dist",
        "snaen": "YouBike2.0_Zhonggang Elementary School",
        "aren": "Zhonghe St. & Zhonggang 1st. St. Intersection(Northwest)",
        "bemp": "10",
        "act": "1"
    },
    {
        "sno": "500229008",
        "sna": "YouBike2.0_捷運輔大站(4號出口)",
        "tot": "52",
        "sbi": "27",
        "sarea": "新莊區",
        "mday": "20250920022403",
        "lat": "25.03304",
        "lng": "121.43666",
        "ar": "中正路/中正路508巷口(東北側)",
        "sareaen": "Xinzhuang Dist",
        "snaen": "YouBike2.0_MRT Fu Jen University Sta. (Exit.4)",
        "aren": "Ln. 508, Zhongzheng Rd. & Zhongzheng Rd. Intersection (Northeast)",
        "bemp": "25",
        "act": "1"
    },
    {
        "sno": "500229009",
        "sna": "YouBike2.0_四維公園",
        "tot": "27",
        "sbi": "20",
        "sarea": "新莊區",
        "mday": "20250920021301",
        "lat": "25.0213",
        "lng": "121.42221",
        "ar": "四維路/四維路179巷口(西側)",
        "sareaen": "Xinzhuang Dist",
        "snaen": "YouBike2.0_Siwei Park",
        "aren": "Ln.179, Siwei Rd. & Siwei Rd.(West)",
        "bemp": "2",
        "act": "1"
    },
    {
        "sno": "500229010",
        "sna": "YouBike2.0_瓊林公園",
        "tot": "30",
        "sbi": "11",
        "sarea": "新莊區",
        "mday": "20250919234603",
        "lat": "25.02629",
        "lng": "121.44244",
        "ar": "中環路一段16號(對面陸橋下)",
        "sareaen": "Xinzhuang Dist",
        "snaen": "YouBike2.0_Qionglin Park",
        "aren": "No. 16, Sec. 1, Zhonghuan Rd.",
        "bemp": "19",
        "act": "1"
    },
    {
        "sno": "500229011",
        "sna": "YouBike2.0_宏匯廣場",
        "tot": "45",
        "sbi": "1",
        "sarea": "新莊區",
        "mday": "20250919232702",
        "lat": "25.05931",
        "lng": "121.44908",
        "ar": "中央路558號(旁)",
        "sareaen": "Xinzhuang Dist",
        "snaen": "YouBike2.0_Honhui Plaza",
        "aren": "No.558, Zhongyang Rd. (Side)",
        "bemp": "43",
        "act": "1"
    },
    {
        "sno": "500229012",
        "sna": "YouBike2.0_捷運新莊副都心站",
        "tot": "43",
        "sbi": "3",
        "sarea": "新莊區",
        "mday": "20250920031102",
        "lat": "25.05914",
        "lng": "121.4466",
        "ar": "新北大道四段/中信街口(西南側)",
        "sareaen": "Xinzhuang Dist",
        "snaen": "YouBike2.0_MRT Xinzhuang Fuduxin Sta.",
        "aren": "Sec. 4, New Taipei Blvd./Zhongxin St., Xinzhuang Dist.",
        "bemp": "40",
        "act": "1"
    },
    {
        "sno": "500229013",
        "sna": "YouBike2.0_行政院新莊聯合辦公大樓",
        "tot": "51",
        "sbi": "2",
        "sarea": "新莊區",
        "mday": "20250920022503",
        "lat": "25.05595",
        "lng": "121.44443",
        "ar": "榮華路二段/中平路口(西北側)",
        "sareaen": "Xinzhuang Dist",
        "snaen": "YouBike2.0_Xinzhuang Joint Office Tower, Executive Yuan",
        "aren": "Zhongping Rd./ Sec. 2, Ronghua Rd. intersection",
        "bemp": "49",
        "act": "1"
    },
    {
        "sno": "500229014",
        "sna": "YouBike2.0_中信國小",
        "tot": "33",
        "sbi": "4",
        "sarea": "新莊區",
        "mday": "20250920013004",
        "lat": "25.05572",
        "lng": "121.44954",
        "ar": "榮華路二段/中富街口(西北側)",
        "sareaen": "Xinzhuang Dist",
        "snaen": "YouBike2.0_Zhongxin Elementary School",
        "aren": "Sec. 2, Ronghua Rd./Zhongfu St., Xinzhuang Dist.",
        "bemp": "27",
        "act": "1"
    },
    {
        "sno": "500229015",
        "sna": "YouBike2.0_捷運新北產業園區站",
        "tot": "70",
        "sbi": "2",
        "sarea": "新莊區",
        "mday": "20250920021004",
        "lat": "25.06203",
        "lng": "121.45918",
        "ar": "新莊區五工路55號",
        "sareaen": "Xinzhuang Dist",
        "snaen": "YouBike2.0_MRT New Taipei Industrial Park Sta.",
        "aren": "No.55, Wugong Rd., Xinzhuang Dist.",
        "bemp": "67",
        "act": "1"
    },
    {
        "sno": "500229016",
        "sna": "YouBike2.0_新莊文化藝術中心",
        "tot": "40",
        "sbi": "19",
        "sarea": "新莊區",
        "mday": "20250920031203",
        "lat": "25.04714",
        "lng": "121.4445",
        "ar": "中平路 133 號前",
        "sareaen": "Xinzhuang Dist",
        "snaen": "YouBike2.0_Xinzhuang Culture and Arts Center",
        "aren": "No.133, Zhongping Rd.",
        "bemp": "21",
        "act": "1"
    },
    {
        "sno": "500229017",
        "sna": "YouBike2.0_化成公園",
        "tot": "30",
        "sbi": "8",
        "sarea": "新莊區",
        "mday": "20250920000402",
        "lat": "25.04786",
        "lng": "121.46160",
        "ar": "思源路166巷41號(對面)",
        "sareaen": "Xinzhuang Dist",
        "snaen": "YouBike2.0_Huacheng Park",
        "aren": "No.41, Ln. 166, Siyuan Rd., Xinzhuang Dist.(Opposite)",
        "bemp": "22",
        "act": "1"
    },
    {
        "sno": "500229018",
        "sna": "YouBike2.0_頭前國中",
        "tot": "51",
        "sbi": "8",
        "sarea": "新莊區",
        "mday": "20250920024102",
        "lat": "25.05444",
        "lng": "121.45916",
        "ar": "中原路2號前",
        "sareaen": "Xinzhuang Dist",
        "snaen": "YouBike2.0_Touqian Junior High School",
        "aren": "No.2 , Zhongyuan Rd. (opposite)",
        "bemp": "43",
        "act": "1"
    },
    {
        "sno": "500229019",
        "sna": "YouBike2.0_福壽公園",
        "tot": "38",
        "sbi": "31",
        "sarea": "新莊區",
        "mday": "20250920022302",
        "lat": "25.05151",
        "lng": "121.45758",
        "ar": "福壽街130號(對面)",
        "sareaen": "Xinzhuang Dist",
        "snaen": "YouBike2.0_Fushou Park",
        "aren": "No.130, Fushou St.",
        "bemp": "7",
        "act": "1"
    },
    {
        "sno": "500229020",
        "sna": "YouBike2.0_中華中原路口",
        "tot": "64",
        "sbi": "51",
        "sarea": "新莊區",
        "mday": "20250920032402",
        "lat": "25.05423",
        "lng": "121.45178",
        "ar": "中原路/中華路二段(西南側)",
        "sareaen": "Xinzhuang Dist",
        "snaen": "YouBike2.0_Zhonghua & Zhongyuan Intersection",
        "aren": "Zhongyuan Rd./Sec. 2, Zhonghua Rd",
        "bemp": "12",
        "act": "1"
    },
    {
        "sno": "500229021",
        "sna": "YouBike2.0_中港大排願景館",
        "tot": "39",
        "sbi": "1",
        "sarea": "新莊區",
        "mday": "20250920020503",
        "lat": "25.05894",
        "lng": "121.45165",
        "ar": "中央路295號(對面)",
        "sareaen": "Xinzhuang Dist",
        "snaen": "YouBike2.0_Zhonggang Vision Hall",
        "aren": "No.295, Zhongyang Rd., Xinzhuang Dist.(opposite)",
        "bemp": "38",
        "act": "1"
    },
    {
        "sno": "500229022",
        "sna": "YouBike2.0_捷運頭前庄站(1號出口)",
        "tot": "90",
        "sbi": "6",
        "sarea": "新莊區",
        "mday": "20250920014902",
        "lat": "25.03953",
        "lng": "121.4608",
        "ar": "思源路/中正路(北側)",
        "sareaen": "Xinzhuang Dist",
        "snaen": "YouBike2.0_MRT Touqianzhuang Sta.(Exit.1)",
        "aren": "Zhongzheng Rd./Siyuan Rd.(intersection)",
        "bemp": "84",
        "act": "1"
    },
    {
        "sno": "500229023",
        "sna": "YouBike2.0_中平國中",
        "tot": "50",
        "sbi": "0",
        "sarea": "新莊區",
        "mday": "20250920020314",
        "lat": "25.05426",
        "lng": "121.44394",
        "ar": "中原路636號(對面)",
        "sareaen": "Xinzhuang Dist",
        "snaen": "YouBike2.0_JhongPing Junior High School",
        "aren": "No. 636, Zhongyuan Rd., Xinzhuang Dist.",
        "bemp": "50",
        "act": "1"
    },
    {
        "sno": "500229024",
        "sna": "YouBike2.0_捷運新莊站(1號出口)",
        "tot": "69",
        "sbi": "6",
        "sarea": "新莊區",
        "mday": "20250920014301",
        "lat": "25.03641",
        "lng": "121.45204",
        "ar": "中華路一段/中正路(西北側)",
        "sareaen": "Xinzhuang Dist",
        "snaen": "YouBike2.0_MRT Xinzhuang Sta. (Exit 1)",
        "aren": "Zhongzheng Rd./Sec. 1, Zhonghua Rd.",
        "bemp": "62",
        "act": "1"
    },
    {
        "sno": "500229025",
        "sna": "YouBike2.0_捷運新莊站(2號出口)",
        "tot": "54",
        "sbi": "4",
        "sarea": "新莊區",
        "mday": "20250920025902",
        "lat": "25.03607",
        "lng": "121.45278",
        "ar": "新莊路214巷/中正路口(南側)",
        "sareaen": "Xinzhuang Dist",
        "snaen": "YouBike2.0_MRT Xinzhuang Sta. (Exit 2)",
        "aren": "Ln. 214, Xinzhuang Rd. & Zhongzheng Rd. Intersection(South)",
        "bemp": "50",
        "act": "1"
    },
    {
        "sno": "500229026",
        "sna": "YouBike2.0_中正仁愛街口",
        "tot": "48",
        "sbi": "8",
        "sarea": "新莊區",
        "mday": "20250920022004",
        "lat": "25.03452",
        "lng": "121.44462",
        "ar": "中正路/仁愛街(東北側)",
        "sareaen": "Xinzhuang Dist",
        "snaen": "YouBike2.0_Zhongzheng Ren'ai St. Intersection",
        "aren": "Zhongzheng Rd. & Ren'ai St. (Northeast)",
        "bemp": "38",
        "act": "1"
    },
    {
        "sno": "500229027",
        "sna": "YouBike2.0_新月橋",
        "tot": "60",
        "sbi": "24",
        "sarea": "新莊區",
        "mday": "20250920033302",
        "lat": "25.03208",
        "lng": "121.44982",
        "ar": "新泰路/瓊林路(東北側)",
        "sareaen": "Xinzhuang Dist",
        "snaen": "YouBike2.0_Crescent Bridge",
        "aren": "Xintai Rd. & Qionglin Rd. (Northeast)",
        "bemp": "35",
        "act": "1"
    },
    {
        "sno": "500229028",
        "sna": "YouBike2.0_新莊田徑場",
        "tot": "42",
        "sbi": "11",
        "sarea": "新莊區",
        "mday": "20250920032102",
        "lat": "25.04341",
        "lng": "121.45259",
        "ar": "復興路一段209號(對面)",
        "sareaen": "Xinzhuang Dist",
        "snaen": "YouBike2.0_Xinzhuang Stadium",
        "aren": "No.209, Sec. 1, Fuxing Rd., Xinzhuang Dist.(opposite)",
        "bemp": "31",
        "act": "1"
    },
    {
        "sno": "500229029",
        "sna": "YouBike2.0_豐年國小",
        "tot": "28",
        "sbi": "19",
        "sarea": "新莊區",
        "mday": "20250920020802",
        "lat": "25.0307",
        "lng": "121.44324",
        "ar": "瓊泰路161號對面人行道",
        "sareaen": "Xinzhuang Dist",
        "snaen": "YouBike2.0_Feng-Nian Elementary School",
        "aren": "No.161, Qiongtai Rd. (opposite)",
        "bemp": "9",
        "act": "1"
    },
    {
        "sno": "500229030",
        "sna": "YouBike2.0_後港公園",
        "tot": "35",
        "sbi": "29",
        "sarea": "新莊區",
        "mday": "20250920024304",
        "lat": "25.02536",
        "lng": "121.42835",
        "ar": "建安街/建安街57巷",
        "sareaen": "Xinzhuang Dist",
        "snaen": "YouBike2.0_Hougang Park",
        "aren": "Ln. 57, Jian’an St./Jian’an St.",
        "bemp": "6",
        "act": "1"
    },
    {
        "sno": "500229031",
        "sna": "YouBike2.0_福營行政中心",
        "tot": "43",
        "sbi": "7",
        "sarea": "新莊區",
        "mday": "20250920032903",
        "lat": "25.02413",
        "lng": "121.42387",
        "ar": "四維路17號-20號",
        "sareaen": "Xinzhuang Dist",
        "snaen": "YouBike2.0_Fuying Administration Center",
        "aren": "No.17, Siwei Rd./No.20, Siwei Rd.",
        "bemp": "36",
        "act": "1"
    },
    {
        "sno": "500229032",
        "sna": "YouBike2.0_黃城公園",
        "tot": "38",
        "sbi": "37",
        "sarea": "新莊區",
        "mday": "20250920014003",
        "lat": "25.05238",
        "lng": "121.44824",
        "ar": "中信街74號旁",
        "sareaen": "Xinzhuang Dist",
        "snaen": "YouBike2.0_Huangcheng Park",
        "aren": "No.74, Zhongxin St.",
        "bemp": "1",
        "act": "1"
    },
    {
        "sno": "500229033",
        "sna": "YouBike2.0_新泰公園",
        "tot": "30",
        "sbi": "20",
        "sarea": "新莊區",
        "mday": "20250920013802",
        "lat": "25.0372",
        "lng": "121.44495",
        "ar": "建中街116巷/建中街116巷3弄",
        "sareaen": "Xinzhuang Dist",
        "snaen": "YouBike2.0_Xintai Park",
        "aren": "Ln. 116, Jianzhong St./Aly. 3, Ln. 116, Jianzhong St.",
        "bemp": "9",
        "act": "1"
    },
    {
        "sno": "500229034",
        "sna": "YouBike2.0_光華東帝士",
        "tot": "40",
        "sbi": "16",
        "sarea": "新莊區",
        "mday": "20250920021702",
        "lat": "25.0108",
        "lng": "121.42784",
        "ar": "民安西路370號至376號前",
        "sareaen": "Xinzhuang Dist",
        "snaen": "YouBike2.0_Guanghua dongdishi",
        "aren": "No.370 to No.376, Min’an W. Rd.",
        "bemp": "22",
        "act": "1"
    },
    {
        "sno": "500229035",
        "sna": "YouBike2.0_建福公園",
        "tot": "33",
        "sbi": "26",
        "sarea": "新莊區",
        "mday": "20250920011005",
        "lat": "25.02769",
        "lng": "121.42669",
        "ar": "建福路/建福路49巷",
        "sareaen": "Xinzhuang Dist",
        "snaen": "YouBike2.0_Jianfu Park",
        "aren": "Jianfu Rd./Ln. 49, Jianfu Rd.",
        "bemp": "7",
        "act": "1"
    },
    {
        "sno": "500229036",
        "sna": "YouBike2.0_立泰里(中環路二段)",
        "tot": "20",
        "sbi": "17",
        "sarea": "新莊區",
        "mday": "20250920012402",
        "lat": "25.04568",
        "lng": "121.44213",
        "ar": "新莊區中環路二段423號(對面橋下)",
        "sareaen": "Xinzhuang Dist",
        "snaen": "YouBike2.0_Litai Village(Zhonghuan Rd. Sec. 2)",
        "aren": "No.423, Sec. 2, Zhonghuan Rd.(opposite)",
        "bemp": "3",
        "act": "1"
    },
    {
        "sno": "500229037",
        "sna": "YouBike2.0_伊吉邦社區",
        "tot": "40",
        "sbi": "33",
        "sarea": "新莊區",
        "mday": "20250920023803",
        "lat": "25.03019",
        "lng": "121.4134",
        "ar": "新莊區新北大道7段312號(人行道)",
        "sareaen": "Xinzhuang Dist",
        "snaen": "YouBike2.0_Yijibang",
        "aren": "No.312, Sec. 7, New Taipei Blvd., Xinzhuang Dist",
        "bemp": "4",
        "act": "1"
    },
    {
        "sno": "500229038",
        "sna": "YouBike2.0_昌隆國小",
        "tot": "46",
        "sbi": "39",
        "sarea": "新莊區",
        "mday": "20250920032802",
        "lat": "25.05213",
        "lng": "121.45489",
        "ar": "新莊區昌平街/昌平街31巷(對面昌隆國小人行道)",
        "sareaen": "Xinzhuang Dist",
        "snaen": "YouBike2.0_Changlong Elementary School",
        "aren": "Changping Street / Changping Street 31 Lane (opposite the Changlong Primary School sidewalk)",
        "bemp": "7",
        "act": "1"
    },
    {
        "sno": "500229039",
        "sna": "YouBike2.0_輔仁大學附設醫院",
        "tot": "41",
        "sbi": "6",
        "sarea": "新莊區",
        "mday": "20250920014902",
        "lat": "25.03927",
        "lng": "121.431",
        "ar": "三泰路66號(對面人行道)",
        "sareaen": "Xinzhuang Dist",
        "snaen": "YouBike2.0_Fu Jen Catholic University Hospital",
        "aren": "No.66, Santai Rd., Xinzhuang Dist.",
        "bemp": "32",
        "act": "1"
    },
    {
        "sno": "500229040",
        "sna": "YouBike2.0_大眾廟",
        "tot": "28",
        "sbi": "1",
        "sarea": "新莊區",
        "mday": "20250920003603",
        "lat": "25.0374",
        "lng": "121.458",
        "ar": "中正路82號(旁)",
        "sareaen": "Xinzhuang Dist",
        "snaen": "YouBike2.0_Dazhong Temple",
        "aren": "No.82, Zhongzheng Rd.,Xinzhuang Dist.",
        "bemp": "27",
        "act": "1"
    },
    {
        "sno": "500229041",
        "sna": "YouBike2.0_遠東動力企業總部",
        "tot": "26",
        "sbi": "3",
        "sarea": "新莊區",
        "mday": "20250920020503",
        "lat": "25.03113",
        "lng": "121.42999",
        "ar": "中正路651號(前)",
        "sareaen": "Xinzhuang Dist",
        "snaen": "YouBike2.0_Far East Power Corporate Headquarters",
        "aren": "No. 651, Zhongzheng Rd., Xinzhuang Dist.",
        "bemp": "23",
        "act": "1"
    },
    {
        "sno": "500229042",
        "sna": "YouBike2.0_昌平公園",
        "tot": "46",
        "sbi": "16",
        "sarea": "新莊區",
        "mday": "20250920022202",
        "lat": "25.05866",
        "lng": "121.45811",
        "ar": "中央路/福壽街口(東南側)",
        "sareaen": "Xinzhuang Dist",
        "snaen": "YouBike2.0_Changping Park",
        "aren": "Zhongyang Rd./Fushou St., Xinzhuang Dist.",
        "bemp": "30",
        "act": "1"
    },
    {
        "sno": "500229043",
        "sna": "YouBike2.0_中正新雅巷口",
        "tot": "48",
        "sbi": "33",
        "sarea": "新莊區",
        "mday": "20250920030004",
        "lat": "25.02594",
        "lng": "121.41769",
        "ar": "中正路881號(前人行道)",
        "sareaen": "Xinzhuang Dist",
        "snaen": "YouBike2.0_Zhongzheng & Xinya Intersection",
        "aren": "No. 881, Zhongzheng Rd.",
        "bemp": "14",
        "act": "1"
    },